time,roll_commanded,roll_measured,pitch_commanded,pitch_measured,yaw_commanded,yaw_measured,label,wind_estimation_linear_x,wind_estimation_linear_y,orientation_x,orientation_y,orientation_z,orientation_w,angular_velocity_x,angular_velocity_y,angular_velocity_z,linear_acceleration_x,linear_acceleration_y,linear_acceleration_z,airspeed,groundspeed,throttle,altitude,climb
2018-07-18 19:56:50.869853020,44.9500007629,-50.991291046099995,-7.06999969482,0.7214751243590001,-83.0,88.85004425049999,False,3.45993999875,7.07451048153,0.192815652867,0.035781661494499996,-0.0586542927737,-0.978826578434,2.0482289791099997,-0.148679882288,0.18908059597,1.8240368999999999,-0.32361945,14.81784815,17.3264045715,19.439060211199997,0.52999997139,380.47000122099996,2.05125331879
2018-07-18 19:56:50.908512354,44.9500007629,-50.991291046099995,-4.85999965668,0.7214751243590001,-83.0,88.85004425049999,False,3.4370929789746425,7.056087890898178,0.15304127474499446,0.03714200888239727,-0.06514792915031442,-0.9797902124280751,1.8363617965346077,-0.15417311922549426,0.17905334500107506,1.5972440732714341,-0.23619651679178189,14.432680444271039,17.36804678878364,19.366786315492213,0.49382455035304623,380.56689968010704,1.7276941367974181
2018-07-18 19:56:50.935194731,44.9399986267,-50.991291046099995,-4.90999984741,0.7214751243590001,-83.0,88.85004425049999,False,3.4142459591992846,7.037665300266357,0.11326689662298894,0.038502356270294545,-0.07164156552692884,-0.9807538464221501,1.6244946139592158,-0.15966635616298855,0.16902609403215013,1.3704512465428684,-0.1487735835835638,14.047512738542078,17.409689006067286,19.294512419784432,0.4576491293160925,380.6637981392141,1.404134954804836
2018-07-18 19:56:50.994324207,44.9399986267,-22.4634304047,-2.91999983788,2.71851015091,-84.0,82.6015853882,False,3.3913989394239272,7.019242709634536,0.07349251850098341,0.03986270365819182,-0.07813520190354326,-0.9817174804162252,1.412627431383824,-0.1651595931004828,0.1589988430632252,1.1436584198143025,-0.061350650375345706,13.662345032813118,17.451331223350927,19.222238524076648,0.42147370827913866,380.7606965983212,1.0805757728122543
2018-07-18 19:56:51.027289152,44.9399986267,-22.4634304047,-2.95000004768,2.71851015091,-84.0,82.6015853882,False,3.36855191964857,7.000820119002714,0.033718140378977884,0.04122305104608909,-0.08462883828015769,-0.9826811144103003,1.2007602488084321,-0.1706528300379771,0.14897159209430028,0.9168655930857368,0.026072282832872384,13.277177327084157,17.49297344063457,19.149964628368863,0.3852982872421849,380.8575950574282,0.7570165908196722
2018-07-18 19:56:51.089499474,44.8499984741,-22.4634304047,-1.25999999046,2.71851015091,-86.0,82.6015853882,False,3.3457048998732124,6.982397528370893,-0.0060562377430276315,0.04258339843398636,-0.09112247465677212,-0.9836447484043753,0.9888930662330402,-0.17614606697547136,0.13894434112537535,0.6900727663571711,0.11349521604109047,12.892009621355195,17.534615657918213,19.07769073266108,0.34912286620523114,380.9544935165353,0.43345740882709016
2018-07-18 19:56:51.146321058,42.5200004578,-22.4634304047,-1.59999990463,2.71851015091,-86.0,82.6015853882,False,3.3228578800978545,6.963974937739072,-0.045830615865033175,0.04394374582188364,-0.09761611103338652,-0.9846083823984504,0.7770258836576485,-0.18163930391296562,0.12891709015645042,0.46327993962860514,0.20091814924930856,12.506841915626234,17.576257875201858,19.005416836953298,0.3129474451682773,381.0513919756424,0.10989822683450834
2018-07-18 19:56:51.217081308,41.2999992371,-22.4634304047,-0.159999996424,2.71851015091,-86.0,82.6015853882,False,3.300010860322497,6.945552347107251,-0.08560499398703872,0.04530409320978091,-0.10410974741000095,-0.9855720163925253,0.5651587010822565,-0.1871325408504599,0.11888983918752548,0.23648711290003943,0.2883410824575266,12.121674209897273,17.6179000924855,18.933142941245514,0.27677202413132357,381.14829043474947,-0.21366095515807393
2018-07-18 19:56:51.235919476,41.2900009155,-22.4634304047,-0.34999999404,2.71851015091,-86.0,82.6015853882,False,3.2771638405471397,6.927129756475429,-0.10817493079580126,0.047622978889005324,-0.10897095560691349,-0.9862806583074183,0.35650045207200476,-0.1828141437601144,0.10724450609419874,0.061401020367443694,0.35468611128012645,11.838273261280127,17.667028227374438,18.84318721156618,0.25503753477147373,381.26030088262183,-0.2723012132310193
2018-07-18 19:56:51.299280405,-44.770000457799995,-22.4634304047,1.25,2.71851015091,-44.0,82.6015853882,False,3.254316820771782,6.908707165843607,-0.08176281115980141,0.05267087946824349,-0.10918454475102767,-0.9862633227733456,0.1569782256825054,-0.1505614474375662,0.09099239801139858,0.033527041663374155,0.36102110644014224,11.844608256440143,17.73746921003374,18.70289026046195,0.27441722736290797,381.4153360514496,0.4232982885613533
2018-07-18 19:56:51.339488029,-44.729999542200005,-22.4634304047,1.25999999046,2.71851015091,-44.0,82.6015853882,False,3.2373323878137774,6.8952557838135204,-0.05535069152380157,0.057718780047481655,-0.10939813389514184,-0.9862459872392729,-0.04254400070699399,-0.11830875111501797,0.07474028992859842,0.005653062959304622,0.367356101600158,11.850943251600158,17.807910192693047,18.562593309357723,0.29379691995434215,381.5703712202773,1.118897790353726
2018-07-18 19:56:51.429323196,-44.6100006104,12.6104841232,1.89999997616,6.68500089645,-44.0,78.1361999512,False,3.224403832528155,6.8852436027028725,-0.02893857188780173,0.06276668062671982,-0.10961172303925602,-0.9862286517052002,-0.2420662270964934,-0.08605605479246976,0.058488181845798265,-0.022220915744764924,0.3736910967601738,11.857278246760174,17.87835117535235,18.422296358253497,0.3131766125457764,381.72540638910505,1.8144972921460987
2018-07-18 19:56:51.551316977,-44.479999542200005,12.6104841232,1.7199999094,6.68500089645,-44.0,78.1361999512,False,3.2114752772425326,6.875231421592225,-0.0025264522518018834,0.06781458120595799,-0.10982531218337022,-0.9862113161711276,-0.44158845348599274,-0.05380335846992157,0.04223607376299811,-0.05009489444883446,0.38002609192018966,11.86361324192019,17.948792158011656,18.281999407149268,0.3325563051372106,381.8804415579328,2.5100967939384713
2018-07-18 19:56:51.622042894,-44.4500007629,12.6104841232,1.62000000477,6.68500089645,-44.0,78.1361999512,False,3.1985467219569106,6.865219240481577,0.02388566738419795,0.07286248178519615,-0.1100389013274844,-0.9861939806370549,-0.6411106798754921,-0.02155066214737336,0.02598396568019795,-0.07796887315290399,0.38636108708020545,11.869948237080205,18.019233140670963,18.141702456045042,0.3519359977286448,382.0354767267605,3.205696295730844
2018-07-18 19:56:51.661894560,-44.4599990845,12.6104841232,1.62999999523,6.68500089645,-44.0,78.1361999512,False,3.185618166671288,6.855207059370929,0.0502977870201978,0.07791038236443432,-0.11025249047159857,-0.9861766451029822,-0.8406329062649914,0.010702034175174846,0.009731857597397794,-0.10584285185697354,0.39269608224022123,11.876283232240223,18.089674123330266,18.001405504940813,0.37131569032007905,382.1905118955883,3.9012957975232165
2018-07-18 19:56:51.744421482,-44.4899978638,12.6104841232,1.5499999523199999,6.68500089645,-44.0,78.1361999512,False,3.1726896113856657,6.845194878260281,0.07670990665619765,0.08295828294367248,-0.11046607961571277,-0.9861593095689095,-1.0401551326544909,0.042954730497723054,-0.006520250485402362,-0.13371683056104308,0.399031077400237,11.882618227400238,18.160115105989572,17.861108553836587,0.3906953829115133,382.34554706441605,4.596895299315589
2018-07-18 19:56:51.816952229,-44.520000457799995,-11.3837566376,1.5499999523199999,8.547611236569999,-44.0,76.3517608643,False,3.1597610561000433,6.835182697149632,0.09834148587276169,0.08588210665305526,-0.10922022104428171,-0.984813678101281,-1.1118725176996442,0.053492168958841756,-0.012065923476914105,-0.11745894695772421,0.3625515792769656,11.751946844053734,18.15331788895073,17.74574792155496,0.41007507550301464,382.489164969435,4.858661962088621
2018-07-18 19:56:51.848067284,-44.5299987793,-11.3837566376,1.59999990463,8.547611236569999,-44.0,76.3517608643,False,3.1468325008144213,6.825170516038984,0.11555809540784678,0.08684428290027747,-0.10662651958261181,-0.9822413262714861,-1.065558372797372,0.043974928100875624,-0.007723888766471236,-0.060443990517581966,0.28653163735677595,11.494746040557093,18.075188922778903,17.653416713127143,0.42945476809457805,382.6222386955247,4.71977123823791
2018-07-18 19:56:51.902173281,-44.5399971008,-11.3837566376,1.45999991894,8.547611236569999,-44.0,76.3517608643,False,3.133903945528799,6.815158334928336,0.1327747049429319,0.08780645914749967,-0.10403281812094192,-0.9796689744416911,-1.0192442278951,0.034457687242909485,-0.003381854056028368,-0.0034290340774397465,0.2105116954365863,11.23754523706045,17.997059956607075,17.561085504699328,0.44883446068614147,382.7553124216144,4.580880514387199
2018-07-18 19:56:51.970794439,-44.5499992371,-11.3837566376,1.50999999046,8.547611236569999,-44.0,76.3517608643,False,3.1210138499904385,6.805098749585259,0.149991314478017,0.08876863539472188,-0.10143911665927204,-0.9770966226118961,-0.9729300829928277,0.024940446384943346,0.0009601806544144997,0.05358592236270249,0.13449175351639664,10.98034443356381,17.918930990435243,17.468754296271513,0.4682141532777049,382.88838614770407,4.441989790536487
2018-07-18 19:56:52.014207840,-44.5399971008,-11.3837566376,1.17999994755,8.547611236569999,-44.0,76.3517608643,False,3.1082964308683563,6.794826328912904,0.16720792401310208,0.08973081164194409,-0.09884541519760214,-0.9745242707821012,-0.9266159380905555,0.015423205526977207,0.005302215364857367,0.11060087880284472,0.05847181159620701,10.723143630067167,17.840802024263414,17.376423087843698,0.4875938458692683,383.0214598737938,4.3030990666857765
2018-07-18 19:56:52.054131508,-44.5399971008,-26.8369846344,1.19999992847,7.995443344119999,-44.0,77.3887176514,False,3.095579011746274,6.784553908240549,0.1844245335481872,0.0906929878891663,-0.09625171373593225,-0.9719519189523063,-0.8803017931882833,0.005905964669011075,0.009644250075300237,0.16761583524298698,-0.017548130323982614,10.465942826570526,17.762673058091583,17.284091879415882,0.5069735384608317,383.15453359988345,4.164208342835066
2018-07-18 19:56:52.093729973,-44.5499992371,-26.8369846344,0.989999949932,7.995443344119999,-44.0,77.3887176514,False,3.082861592624192,6.774281487568194,0.2016411430832723,0.09165516413638851,-0.09365801227426235,-0.9693795671225113,-0.8339876482860111,-0.0036112761889550635,0.013986284785743106,0.2246307916831292,-0.09356807224417224,10.208742023073883,17.684544091919754,17.191760670988067,0.5263532310523951,383.28760732597317,4.025317618984354
2018-07-18 19:56:52.169109344,-44.569999694799996,-26.8369846344,1.03999996185,7.995443344119999,-44.0,77.3887176514,False,3.07014417350211,6.76400906689584,0.21885775261835738,0.0926173403836107,-0.09106431081259246,-0.9668072152927164,-0.787673503383739,-0.013128517046921202,0.018328319496185977,0.2816457481232715,-0.16958801416436192,9.951541219577242,17.606415125747926,17.099429462560252,0.5457329236439585,383.42068105206283,3.886426895133643
2018-07-18 19:56:52.197297812,-44.579998016400005,-26.8369846344,3.03999996185,7.995443344119999,-44.0,77.3887176514,False,3.0574267543800278,6.7537366462234845,0.23018614513074162,0.09349888218069602,-0.092455301195727,-0.9639141724510802,-0.7225305640860182,-0.02754717322560584,0.043929988872387825,0.4028824444883445,-0.2080629388976689,9.717065031746346,17.493021073148597,17.057857741054207,0.5409324493323473,383.557785666825,3.32550366637501
2018-07-18 19:56:52.278116703,-44.6100006104,-26.8369846344,5.10999965668,7.995443344119999,-44.0,77.3887176514,False,3.0447093352579455,6.74346422555113,0.23985198224848084,0.09435765660362501,-0.09497138104092395,-0.9609305815590419,-0.6520712593119357,-0.043349758436022755,0.075534378624804,0.5422523380086922,-0.23593691760173843,9.489005205985777,17.36966981967562,17.030618109973133,0.5293046337774868,383.69602841485937,2.645418318583552
2018-07-18 19:56:52.313744783,-44.61999893189999,-26.8369846344,5.1300001144400005,7.995443344119999,-44.0,77.3887176514,False,3.0319919161358633,6.733191804878775,0.24951781936622008,0.09521643102655401,-0.09748746088612091,-0.9579469906670036,-0.5816119545378531,-0.05915234364643967,0.10713876837722017,0.6816222315290399,-0.263810896305808,9.260945380225207,17.246318566202646,17.00337847889206,0.5176768182226262,383.83427116289374,1.9653329707920941
2018-07-18 19:56:52.375264883,-44.6299972534,-26.8369846344,5.13999986649,7.995443344119999,-44.0,77.3887176514,False,3.019274497013781,6.7229193842064205,0.2591836564839593,0.09607520544948302,-0.10000354073131787,-0.9549633997749652,-0.5111526497637704,-0.07495492885685658,0.13874315812963633,0.8209921250493877,-0.2916848750098775,9.032885554464638,17.12296731272967,16.976138847810983,0.5060490026677658,383.9725139109281,1.285247623000636
2018-07-18 19:56:52.427888393,-44.6399993896,-35.9716186523,7.2799997329699995,7.02017068863,-44.0,74.41744232180001,False,3.006557077891699,6.712646963534065,0.2688494936016985,0.09693397987241201,-0.10251962057651481,-0.9519798088829269,-0.4406933449896879,-0.0907575140672735,0.17034754788205247,0.9603620185697352,-0.31955885371394704,8.80482572870407,16.9996160592567,16.94889921672991,0.49442118711290517,384.1107566589625,0.6051622752091781
2018-07-18 19:56:52.461532116,-44.6499977112,-35.9716186523,7.30999994278,7.02017068863,-44.0,74.41744232180001,False,2.984799527636436,6.692194287900984,0.2785153307194378,0.09779275429534101,-0.10503570042171177,-0.9489962179908885,-0.37023404021560524,-0.10656009927769042,0.20195193763446864,1.099731912090083,-0.3474328324180166,8.576765902943501,16.876264805783723,16.921659585648836,0.48279337155804464,384.24899940699686,-0.07492307258227981
2018-07-18 19:56:52.492930651,-44.6499977112,-35.9716186523,8.38000011444,7.02017068863,-44.0,74.41744232180001,False,2.9603907850776925,6.668756056726535,0.288181167837177,0.09865152871827002,-0.10755178026690873,-0.9460126270988503,-0.29977473544152267,-0.12236268448810733,0.2335563273868848,1.2391018056104306,-0.37530681112208614,8.348706077182932,16.752913552310748,16.894419954567763,0.4711655560031841,384.38724215503123,-0.7550084203737382
2018-07-18 19:56:52.558296680,-44.6499977112,-35.9716186523,8.40999984741,7.02017068863,-44.0,74.41744232180001,False,2.935982042518949,6.645317825552087,0.2977472907880541,0.09966863472718965,-0.11031550424516871,-0.9429691184172789,-0.23238185276506876,-0.13831430029531216,0.2641332285270644,1.3751976496444092,-0.4014178401027262,8.1447231076452,16.632220818785658,16.86637546305816,0.461129996485855,384.52363575003915,-1.3814267311463884
2018-07-18 19:56:52.620911360,-44.6399993896,-35.9716186523,8.15999984741,7.02017068863,-44.0,74.41744232180001,False,2.9115732999602053,6.621879594377638,0.3049049330931849,0.10451005750542158,-0.11906078651433545,-0.9384783646654492,-0.23905485767749032,-0.15786557820954802,0.2698923278024536,1.4322126060845515,-0.38494685268668505,8.522288819182142,16.575741567078744,16.81889049658262,0.48955354433659226,384.6153651873307,-0.7115796862340139
2018-07-18 19:56:52.649740696,-44.6399993896,-35.9716186523,8.1799993515,7.02017068863,-44.0,74.41744232180001,False,2.8871645574014617,6.598441363203189,0.3120625753983157,0.1093514802836535,-0.12780606878350217,-0.9339876109136195,-0.2457278625899119,-0.17741685612378388,0.2756514270778428,1.4892275625246938,-0.36847586527064397,8.899854530719084,16.51926231537183,16.771405530107074,0.5179770921873295,384.7070946246223,-0.04173264132163923
2018-07-18 19:56:52.687301874,-44.6299972534,-35.9716186523,8.31999969482,7.02017068863,-44.0,74.41744232180001,False,2.862755814842718,6.57500313202874,0.3192202177034465,0.11419290306188543,-0.1365513510526689,-0.9294968571617898,-0.2524008675023335,-0.19696813403801977,0.28141052635323194,1.546242518964836,-0.3520048778546029,9.277420242256026,16.462783063664915,16.72392056363153,0.5464006400380668,384.7988240619139,0.6281144035907353
2018-07-18 19:56:52.777909756,-44.61999893189999,-35.9716186523,8.86999988556,7.02017068863,-44.0,74.41744232180001,False,2.8383470722839745,6.551564900854291,0.32637786000857727,0.11903432584011736,-0.14529663332183565,-0.9250061034099601,-0.25907387241475505,-0.21651941195225566,0.28716962562862114,1.6032574754049782,-0.3355338904385618,9.654985953792968,16.406303811958,16.676435597155987,0.5748241878888041,384.89055349920545,1.29796144850311
2018-07-18 19:56:52.826858759,-44.61999893189999,-44.0311164856,8.88000011444,7.09003400803,-44.0,64.9984054565,False,2.813938329725231,6.528126669679842,0.33353550231370804,0.12387574861834928,-0.1540419155910024,-0.9205153496581304,-0.2657468773271766,-0.23607068986649152,0.2929287249040103,1.6602724318451205,-0.3190629030225207,10.03255166532991,16.349824560251086,16.628950630680443,0.6032477357395413,384.98228293649703,1.9678084934154845
2018-07-18 19:56:52.839774609,-44.61999893189999,-44.0311164856,8.89999961853,7.09003400803,-44.0,64.9984054565,False,2.7895295871664874,6.504688438505393,0.3406931446188388,0.1287171713965812,-0.1627871978601691,-0.9160245959063007,-0.2724198822395982,-0.2556219677807274,0.2986878241793995,1.7172873882852628,-0.30259191560647963,10.410117376866852,16.293345308544172,16.5814656642049,0.6316712835902785,385.0740123737886,2.6376555383278593
2018-07-18 19:56:52.893824577,-44.6100006104,-44.0311164856,9.86999988556,7.09003400803,-44.0,64.9984054565,False,2.7662588315999286,6.480087196261786,0.3478507869239696,0.13355859417481314,-0.17153248012933583,-0.911533842154471,-0.27909288715201974,-0.27517324569496326,0.30444692345478863,1.7743023447254052,-0.28612092819043855,10.787683088403794,16.236866056837258,16.53398069772936,0.6600948314410158,385.1657418110802,3.3075025832402334
2018-07-18 19:56:52.939993382,-44.5999984741,-44.0311164856,9.88999938965,7.09003400803,-44.0,64.9984054565,False,2.744973747213611,6.453456618377096,0.35370773172309955,0.14006243121385345,-0.1823900473162505,-0.9061267214878076,-0.27687552878598615,-0.29738926106852986,0.30771970434502255,1.8825784546621893,-0.26509339379691815,11.339536721829317,16.24873747611296,16.50945596756286,0.6800000071529999,385.2555357273469,3.5239188777552686
2018-07-18 19:56:52.996861458,-44.579998016400005,-44.0311164856,10.960000038099999,7.09003400803,-44.0,64.9984054565,False,2.723688662827293,6.426826040492406,0.3565252915337175,0.1504508893317215,-0.19818346395382103,-0.8985782944589309,-0.25388375010601144,-0.32583206091338957,0.3051826188046385,2.110638280422758,-0.23341841799683916,12.298654989055711,16.42032627962355,16.538583218159346,0.6800000071529999,385.340806844484,2.6807878065459168
2018-07-18 19:56:53.060030937,-44.569999694799996,-44.0311164856,10.969999313399999,7.09003400803,-44.0,64.9984054565,False,2.7024035784409755,6.400195462607716,0.3593428513443354,0.1608393474495895,-0.21397688059139156,-0.8910298674300541,-0.23089197142603674,-0.3542748607582493,0.3026455332642545,2.338698106183327,-0.20174344219676016,13.257773256282103,16.591915083134136,16.567710468755827,0.6800000071529999,385.4260779616211,1.8376567353365652
2018-07-18 19:56:53.098801851,-44.559997558599996,-44.0311164856,11.8499994278,7.09003400803,-44.0,64.9984054565,False,2.681118494054658,6.373564884723026,0.36216041115495334,0.17122780556745754,-0.22977029722896206,-0.8834814404011774,-0.20790019274606203,-0.382717660603109,0.3001084477238704,2.566757931943896,-0.17006846639668113,14.216891523508497,16.763503886644724,16.596837719352312,0.6800000071529999,385.5113490787582,0.9945256641272131
2018-07-18 19:56:53.140641451,-44.559997558599996,-44.0311164856,11.869999885599999,7.09003400803,-44.0,64.9984054565,False,2.6598334096683405,6.346934306838336,0.3649779709655713,0.18161626368532557,-0.24556371386653258,-0.8759330133723007,-0.18490841406608732,-0.4111604604479688,0.2975713621834864,2.7948177577044646,-0.13839349059660214,15.17600979073489,16.935092690155315,16.625964969948797,0.6800000071529999,385.5966201958953,0.15139459291786128
2018-07-18 19:56:53.208439827,-44.5299987793,-44.0311164856,12.6899995804,7.09003400803,-44.0,64.9984054565,False,2.6385483252820228,6.320303728953647,0.3677955307761892,0.1920047218031936,-0.2613571305041031,-0.8683845863434239,-0.16191663538611262,-0.4396032602928285,0.29503427664310233,3.022877583465034,-0.10671851479652311,16.135128057961282,17.106681493665903,16.655092220545278,0.6800000071529999,385.6818913130324,-0.6917364782914901
2018-07-18 19:56:53.313685417,-44.479999542200005,-44.0311164856,13.649999618499999,7.09003400803,-44.0,64.9984054565,False,2.617263240895705,6.2936731510689565,0.37061309058680714,0.20239317992106165,-0.27715054714167364,-0.8608361593145472,-0.13892485670613788,-0.46804606013768824,0.2924971911027183,3.2509374092256023,-0.07504353899644411,17.094246325187676,17.27827029717649,16.684219471141763,0.6800000071529999,385.7671624301695,-1.534867549500842
2018-07-18 19:56:53.375190020,-44.4500007629,-50.846061706499995,13.670000076300001,8.323554039,-44.0,47.1687088013,False,2.5959781565093873,6.267042573184266,0.37343065039742507,0.2127816380389297,-0.29294396377924414,-0.8532877322856705,-0.11593307802616318,-0.49648885998254794,0.28996010556233426,3.4789972349861715,-0.04336856319636509,18.05336459241407,17.44985910068708,16.713346721738244,0.6800000071529999,385.8524335473066,-2.3779986207101937
2018-07-18 19:56:53.415629387,-44.4199981689,-50.846061706499995,14.5999994278,8.323554039,-44.0,47.1687088013,False,2.5746930721230696,6.240411995299577,0.3729111562615804,0.22156797222305333,-0.30594570279574357,-0.8469900822066752,-0.09487505712999421,-0.513403948071489,0.29890597852167683,3.5666642689253263,-0.06132740268668507,18.462965618925328,17.56821850326598,16.75340041226926,0.6800000071529999,385.92396683484947,-2.372907370178547
2018-07-18 19:56:53.445864916,-44.3999977112,-50.846061706499995,14.5999994278,8.323554039,-44.0,47.1687088013,False,2.5636666842279334,6.222363738530675,0.36976578361048634,0.22909361872160766,-0.3167507118809083,-0.8416766500554554,-0.07533868170304939,-0.521248049860691,0.31688762210375504,3.5438582863492694,-0.11834235912682735,18.44015963634927,17.644692475603556,16.80205195717499,0.6800000071529999,385.9846900269739,-1.7003624894244729
2018-07-18 19:56:53.511656046,-44.319999694799996,-50.846061706499995,15.269999504100001,8.323554039,-44.0,47.1687088013,False,2.553119301616432,6.2047162127088145,0.3666204109593923,0.236619265220162,-0.3275557209660731,-0.8363632179042358,-0.05580230627610457,-0.5290921516498929,0.3348692656858333,3.5210523037732124,-0.17535731556696962,18.417353653773212,17.72116644794113,16.85070350208072,0.6800000071529999,386.04541321909835,-1.027817608670399
2018-07-18 19:56:53.547594309,-44.2999992371,-50.846061706499995,15.269999504100001,8.323554039,-44.0,47.1687088013,False,2.542571919004931,6.1870686868869536,0.3634750383082983,0.24414491171871633,-0.33836073005123785,-0.8310497857530161,-0.03626593084915976,-0.5369362534390948,0.3528509092679115,3.4982463211971555,-0.2323722720071119,18.394547671197156,17.797640420278704,16.899355046986447,0.6800000071529999,386.10613641122285,-0.35527272791632525
2018-07-18 19:56:53.593935251,-44.2399978638,-50.846061706499995,16.0100002289,8.323554039,-44.0,47.1687088013,False,2.5320245363934295,6.169421161065093,0.36032966565720426,0.25167055821727063,-0.34916573913640264,-0.8257363536017964,-0.016729555422214937,-0.5447803552282967,0.3708325528499897,3.4754403386210986,-0.2893872284472542,18.371741688621096,17.874114392616278,16.948006591892177,0.6800000071529999,386.1668596033473,0.3172721528377487
2018-07-18 19:56:53.667770624,-44.2099990845,-50.846061706499995,16.0200004578,8.323554039,-44.0,47.1687088013,False,2.521477153781928,6.151773635243232,0.3571842930061102,0.259196204715825,-0.35997074822156744,-0.8204229214505768,0.0028068200047298847,-0.5526244570174986,0.388814196432068,3.4526343560450417,-0.3464021848873965,18.34893570604504,17.950588364953852,16.996658136797905,0.6800000071529999,386.22758279547173,0.9898170335918226
2018-07-18 19:56:53.698370934,-44.2099990845,-52.243453979499996,16.6599998474,10.201965332,-44.0,34.2489929199,False,2.510929771170427,6.134126109421371,0.3540389203550162,0.2667218512143793,-0.3707757573067322,-0.8151094892993571,0.022343195431674706,-0.5604685588067005,0.4067958400141462,3.4298283734689847,-0.4034171413275387,18.32612972346898,18.027062337291426,17.045309681703635,0.6800000071529999,386.2883059875962,1.6623619143458965
2018-07-18 19:56:53.818169832,-44.2099990845,-52.243453979499996,17.0900001526,10.201965332,-44.0,34.2489929199,False,2.5003823885589256,6.11647858359951,0.35089354770392217,0.27424749771293366,-0.381580766391897,-0.8097960571481374,0.041879570858619514,-0.5683126605959025,0.42477748359622447,3.407022390892928,-0.460432097767681,18.303323740892925,18.103536309629,17.093961226609366,0.6800000071529999,386.3490291797206,2.334906795099971
2018-07-18 19:56:53.868410349,-44.2099990845,-52.243453979499996,17.1000003815,10.201965332,-44.0,34.2489929199,False,2.489835005947424,6.098831057777649,0.34799000742058794,0.2805770263601549,-0.3929667951137761,-0.8027695650614156,0.03788503436193877,-0.5730265375421932,0.43034378525435324,3.370717250434611,-0.4260681393125245,18.182908462860524,18.111882767021335,17.14721672980273,0.6789411381508853,386.42563477568865,2.4079957730878467
2018-07-18 19:56:53.939068317,-44.219997406000005,-52.243453979499996,17.4899997711,10.201965332,-44.0,34.2489929199,False,2.4792876233359227,6.081183531955788,0.3451397063525441,0.28664323055503044,-0.40448073487508107,-0.7953659441082959,0.02871018516565402,-0.5770512978253058,0.43317685865310507,3.331440280442513,-0.37158718093638865,18.041004571276172,18.105231002839904,17.201485790977323,0.677649159928156,386.50573687101024,2.3491149814368986
2018-07-18 19:56:53.953180313,-44.219997406000005,-52.243453979499996,17.5,10.201965332,-44.0,34.2489929199,False,2.4683015282337615,6.058598906308582,0.3422894052845002,0.292709434749906,-0.41599467463638606,-0.7879623231551761,0.019535335969369277,-0.5810760581084184,0.43600993205185695,3.2921633104504147,-0.3171062225602527,17.89910067969182,18.098579238658473,17.255754852151917,0.6763571817054267,386.58583896633183,2.2902341897859504
2018-07-18 19:56:53.999508381,-44.229999542200005,-52.243453979499996,17.9899997711,10.201965332,-44.0,34.2489929199,False,2.4569513316087397,6.031916823663469,0.33943910421645634,0.29877563894478154,-0.42750861439769106,-0.7805587022020565,0.010360486773084529,-0.585100818391531,0.43884300545060884,3.252886340458317,-0.2626252641841168,17.757196788107464,18.091927474477043,17.31002391332651,0.6750652034826973,386.6659410616535,2.231353398135002
2018-07-18 19:56:54.037566423,-44.229999542200005,-54.1701164246,18.0,10.050630569500001,-44.0,20.5177364349,False,2.4456011349837183,6.005234741018357,0.3365888031484125,0.30484184313965706,-0.4390225541589961,-0.7731550812489367,0.0011856375767997848,-0.5891255786746437,0.4416760788493607,3.213609370466219,-0.20814430580798093,17.615292896523112,18.085275710295615,17.364292974501108,0.673773225259968,386.7460431569751,2.172472606484054
2018-07-18 19:56:54.113421202,-44.219997406000005,-54.1701164246,18.4599990845,10.050630569500001,-44.0,20.5177364349,False,2.4342509383586965,5.9785526583732445,0.33373850208036865,0.31090804733453264,-0.4505364939203011,-0.7657514602958171,-0.00798921161948496,-0.5931503389577563,0.44450915224811255,3.1743324004741207,-0.153663347431845,17.47338900493876,18.078623946114185,17.418562035675702,0.6724812470372387,386.8261452522967,2.113591814833106
2018-07-18 19:56:54.144471407,-44.2000007629,-54.1701164246,18.4599990845,10.050630569500001,-44.0,20.5177364349,False,2.4229007417336748,5.951870575728131,0.3308882010123248,0.31697425152940817,-0.46205043368160614,-0.7583478393426973,-0.017164060815769704,-0.5971750992408689,0.44734222564686443,3.135055430482023,-0.09918238905570914,17.331485113354404,18.071972181932754,17.472831096850296,0.6711892688145092,386.9062473476183,2.0547110231821577
2018-07-18 19:56:54.215818167,-44.1699981689,-54.1701164246,18.0499992371,10.050630569500001,-44.0,20.5177364349,False,2.411550545108653,5.925188493083019,0.3278537585681221,0.32301802366191945,-0.47345955924246386,-0.7509130061569629,-0.022712950356615528,-0.6016900660205053,0.44900329470518485,3.095879200474121,-0.05799910859344146,17.190991581548793,18.070260028696406,17.525874214400158,0.670000016689,386.98614410340457,2.009704353121411
2018-07-18 19:56:54.239378214,-44.1499977112,-54.1701164246,18.0599994659,10.050630569500001,-44.0,20.5177364349,False,2.400200348483631,5.898506410437906,0.3226875255768499,0.32880210153398265,-0.4836552588673746,-0.743116831355188,0.013715616113581026,-0.611880115702207,0.4370961596685104,3.0578692295140257,-0.17076202244172284,17.066825676412485,18.125733371401186,17.564724676909837,0.670000016689,387.0636636591853,2.1253173214703045
2018-07-18 19:56:54.294055223,-44.1100006104,-54.1701164246,17.5499992371,10.050630569500001,-44.0,20.5177364349,False,2.3888501518586094,5.871824327792794,0.31752129258557765,0.33458617940604585,-0.4938509584922853,-0.7353206565534133,0.05014418258377757,-0.6220701653839087,0.42518902463183594,3.019859258553931,-0.2835249362900042,16.942659771276176,18.181206714105965,17.60357513941952,0.670000016689,387.141183214966,2.2409302898191985
2018-07-18 19:56:54.344338417,-44.090000152600005,-54.9443626404,17.5499992371,10.9398670197,-44.0,7.11999130249,False,2.3774999552335876,5.845142245147682,0.31235505959430543,0.3403702572781091,-0.5040466581171961,-0.7275244817516384,0.08657274905397414,-0.6322602150656105,0.41328188959516154,2.9818492875938363,-0.3962878501382856,16.818493866139868,18.236680056810748,17.642425601929197,0.670000016689,387.21870277074675,2.356543258168092
2018-07-18 19:56:54.393457174,-44.079998016400005,-54.9443626404,17.2099990845,10.9398670197,-44.0,7.11999130249,False,2.3664884633742593,5.81750540771714,0.30718882660303315,0.3461543351501723,-0.5142423577421067,-0.7197283069498637,0.12300131552417068,-0.6424502647473121,0.4013747545584871,2.9438393166337415,-0.509050763986567,16.694327961003555,18.292153399515527,17.68127606443888,0.670000016689,387.29622232652747,2.472156226516986
2018-07-18 19:56:54.463853359,-44.079998016400005,-54.9443626404,17.2099990845,10.9398670197,-44.0,7.11999130249,False,2.3576007419376572,5.783881999740127,0.3020225936117609,0.3519384130222355,-0.5244380573670174,-0.7119321321480888,0.15942988199436722,-0.6526403144290138,0.38946761952181264,2.9058293456736464,-0.6218136778348484,16.570162055867247,18.34762674222031,17.720126526948558,0.670000016689,387.3737418823082,2.5877691948658796
2018-07-18 19:56:54.493848324,-44.069999694799996,-54.9443626404,17.0499992371,10.9398670197,-44.0,7.11999130249,False,2.3487130205010547,5.750258591763114,0.2968563606204887,0.35772249089429875,-0.5346337569919282,-0.7041359573463141,0.1958584484645638,-0.6628303641107156,0.37756048448513824,2.8678193747135516,-0.7345765916831298,16.445996150730938,18.40310008492509,17.75897698945824,0.670000016689,387.4512614380889,2.7033821632147736
2018-07-18 19:56:54.557129622,-44.0499992371,-54.9443626404,17.0699996948,10.9398670197,-44.0,7.11999130249,False,2.3398252990644526,5.716635183786101,0.2916901276292165,0.36350656876636195,-0.5448294566168389,-0.6963397825445392,0.2322870149347603,-0.6730204137924173,0.3656533494484638,2.829809403753457,-0.8473395055314111,16.321830245594626,18.458573427629872,17.79782745196792,0.670000016689,387.5287809938696,2.818995131563667
2018-07-18 19:56:54.595466137,-44.0400009155,-54.9443626404,16.9300003052,10.9398670197,-44.0,7.11999130249,False,2.3309375776278505,5.683011775809088,0.2855510863650363,0.36919550029197157,-0.555892220036087,-0.6871179212181833,0.25520204020625836,-0.6745187278937166,0.35952069786732915,2.8012612420782297,-0.8947299188660605,16.401953404563418,18.540861136515648,17.83959634553311,0.6682457684149079,387.62735199949503,2.915158623152134
2018-07-18 19:56:54.638673306,-44.0299987793,-54.9443626404,16.9300003052,10.9398670197,-44.0,7.11999130249,False,2.3220498561912484,5.649388367832074,0.27751901278600827,0.3746992821704283,-0.5686422427308025,-0.6751217509791287,0.25182044476677634,-0.6591033943790983,0.36462487895643386,2.791125249822205,-0.8149089798498613,16.879612039628608,18.675328152564443,17.8870443481793,0.6630778478236637,387.76688798860215,2.9734744842878786
2018-07-18 19:56:54.716117144,-43.079998016400005,-54.9443626404,16.6800003052,10.9398670197,-44.0,7.11999130249,False,2.3131621347546463,5.615764959855062,0.2694869392069802,0.38020306404888504,-0.581392265425518,-0.6631255807400742,0.24843884932729435,-0.6436880608644799,0.3697290600455385,2.7809892575661794,-0.7350880408336622,17.3572706746938,18.80979516861324,17.934492350825483,0.6579099272324196,387.9064239777092,3.0317903454236235
2018-07-18 19:56:54.758753538,-43.090000152600005,-55.0516891479,16.6800003052,11.3321151733,-44.0,-10.6811885834,False,2.304274413318044,5.582141551878048,0.26145486562795217,0.3857068459273418,-0.5941422881202335,-0.6511294105010197,0.24505725388781233,-0.6282727273498616,0.3748332411346432,2.770853265310154,-0.6552671018174632,17.83492930975899,18.94426218466203,17.98194035347167,0.6527420066411754,388.04595996681627,3.090106206559368
2018-07-18 19:56:54.815034866,-39.7799987793,-55.0516891479,16.2600002289,11.3321151733,-44.0,-10.6811885834,False,2.2953866918814416,5.548518143901035,0.2534227920489241,0.3912106278057985,-0.6068923108149491,-0.6391332402619652,0.24167565844833028,-0.6128573938352433,0.37993742222374793,2.7607172730541287,-0.5754461628012639,18.312587944824184,19.078729200710825,18.02938835611786,0.6475740860499313,388.18549595592333,3.1484220676951127
2018-07-18 19:56:54.850087166,-39.7799987793,-55.0516891479,16.2600002289,11.3321151733,-44.0,-10.6811885834,False,2.2864989704448395,5.514894735924022,0.24539071846989605,0.39671440968425525,-0.6196423335096646,-0.6271370700229106,0.23829406300884826,-0.597442060320625,0.38504160331285264,2.7505812807981034,-0.49562522378506485,18.790246579889374,19.21319621675962,18.076836358764044,0.6424061654586871,388.3250319450304,3.2067379288308575
2018-07-18 19:56:54.894582748,-36.1199989319,-55.0516891479,15.859999656700001,11.3321151733,-44.0,-10.6811885834,False,2.283035921261102,5.4948823127013195,0.237358644890868,0.402218191562712,-0.6323923562043801,-0.6151408997838561,0.23491246756936623,-0.5820267268060066,0.39014578440195735,2.7404452885420785,-0.4158042847688658,19.267905214954567,19.347663232808415,18.124284361410233,0.6372382448674428,388.46456793413745,3.2650537899666023
2018-07-18 19:56:54.957550049,-36.1100006104,-55.0516891479,15.839999198900001,11.3321151733,-44.0,-10.6811885834,False,2.281593285722564,5.4799392868616,0.22932657131183995,0.40772197344116873,-0.6451423788990955,-0.6031447295448016,0.2315308721298842,-0.5666113932913883,0.39524996549106206,2.730309296286053,-0.33598334575266664,19.745563850019757,19.48213024885721,18.171732364056417,0.6320703242761987,388.6041039232445,3.323369651102347
2018-07-18 19:56:54.990825415,-31.8799991608,-55.0516891479,15.3499994278,11.3321151733,-44.0,-10.6811885834,False,2.280150650184026,5.464996261021881,0.2212215175051422,0.4104235707374002,-0.6557367585266155,-0.5929887998814389,0.2556558489176137,-0.5673948089534655,0.39099536644771626,2.6206886950217303,-0.2683131986764123,19.763011240359543,19.572304201521888,18.20122495292434,0.6207072252064275,388.7467358006535,3.4598555847472823
2018-07-18 19:56:55.044960022,-31.849998474099998,-55.0516891479,15.3199996948,11.3321151733,-44.0,-10.6811885834,False,2.278708014645488,5.450053235182161,0.21306768609729787,0.4112522793587772,-0.6648903767163671,-0.5840628269293804,0.29816532040822413,-0.5790049396264971,0.38048566435666137,2.444575829573291,-0.20876424417226375,19.472868462030817,19.632874116924732,18.218716729522086,0.6052034711331509,388.89143686871313,3.648587842365196
2018-07-18 19:56:55.099135399,-27.0499992371,-52.1723060608,14.6599998474,11.865972518900001,-44.0,-23.271720886199997,False,2.2772653791069497,5.435110209342442,0.20491385468945356,0.4120809879801541,-0.6740439949061185,-0.575136853977322,0.34067479189883454,-0.5906150702995288,0.3699759622656065,2.2684629641248515,-0.1492152896681152,19.182725683702095,19.693444032327577,18.236208506119834,0.5896997170598743,389.0361379367728,3.83732009998311
2018-07-18 19:56:55.145078182,-27.029998779299998,-52.1723060608,14.6399993896,11.865972518900001,-44.0,-23.271720886199997,False,2.2758227435684115,5.4201671835027225,0.19676002328160921,0.412909696601531,-0.68319761309587,-0.5662108810252635,0.38318426338944495,-0.6022252009725604,0.3594662601745515,2.092350098676412,-0.08966633516396666,18.89258290537337,19.75401394773042,18.25370028271758,0.5741959629865978,389.1808390048325,4.026052357601023
2018-07-18 19:56:55.192473888,-21.25,-52.1723060608,13.9799995422,11.865972518900001,-44.0,-23.271720886199997,False,2.2743801080298733,5.405224157663003,0.1886061918737649,0.41373840522290795,-0.6923512312856215,-0.5572849080732051,0.42569373488005535,-0.6138353316455919,0.3489565580834966,1.916237233227973,-0.030117380659818116,18.602440127044648,19.814583863133265,18.27119205931533,0.5586922089133213,389.3255400728921,4.214784615218937
2018-07-18 19:56:55.257034062,-21.1999988556,-52.1723060608,13.949999809300001,11.865972518900001,-44.0,-23.271720886199997,False,2.2729374724913356,5.390281131823283,0.18045236046592056,0.41456711384428485,-0.701504849475373,-0.5483589351211465,0.4682032063706658,-0.6254454623186235,0.3384468559924417,1.7401243677795337,0.029431573844330428,18.312297348715923,19.875153778536113,18.288683835913076,0.5431884548400446,389.4702411409518,4.4035168728368514
2018-07-18 19:56:55.311030626,-14.7599992752,-52.1723060608,13.179999351500001,11.865972518900001,-44.0,-23.271720886199997,False,2.2714948369527974,5.375338105983563,0.17229852905807624,0.4153958224656618,-0.7106584676651244,-0.5394329621690881,0.5107126778612762,-0.6370555929916552,0.3279371539013868,1.5640115023310943,0.08898052834847892,18.0221545703872,19.935723693938957,18.306175612510824,0.5276847007667681,389.6149422090115,4.592249130454765
2018-07-18 19:56:55.362060070,-14.739999771099999,-52.1723060608,13.1599998474,11.865972518900001,-44.0,-23.271720886199997,False,2.27070973713919,5.361859539046602,0.1641446976502319,0.4162245310870387,-0.719812085854876,-0.5305069892170297,0.5532221493518866,-0.6486657236646868,0.31742745181033183,1.387898636882655,0.14852948285262746,17.732011792058476,19.9962936093418,18.32366738910857,0.5121809466934916,389.7596432770712,4.780981388072679
2018-07-18 19:56:55.391191959,-8.260000228880001,-52.1723060608,12.269999504100001,11.865972518900001,-44.0,-23.271720886199997,False,2.2713238121821218,5.351497204425974,0.14856557515819455,0.41288764869293004,-0.7316534681624363,-0.5181662345155753,0.5774969881774287,-0.6282879898710755,0.3108930967392947,1.260780275286448,0.143841198972738,17.66615496469775,19.987619222889766,18.249293584700947,0.4933464964683742,389.98983107485583,5.209493539866827
2018-07-18 19:56:55.440526247,-8.25,-52.1723060608,12.25,11.865972518900001,-44.0,-23.271720886199997,False,2.2719378872250533,5.341134869805345,0.13177092458831774,0.40886885460233624,-0.7439348403255808,-0.5052664763960704,0.5987867981681197,-0.6026738085135299,0.30500951021957723,1.141682366278151,0.1286372105887001,17.637013986961676,19.967609470297788,18.159881286605607,0.47396680772729716,390.2340131415634,5.677257916330395
2018-07-18 19:56:55.490160465,-2.11999988556,-52.1723060608,11.210000038099999,11.865972518900001,-44.0,-23.271720886199997,False,2.272551962267985,5.3307725351847175,0.11497627401844093,0.4048500605117424,-0.7562162124887254,-0.4923667182765654,0.6200766081588107,-0.5770596271559842,0.29912592369985974,1.022584457269854,0.11343322220466218,17.607873009225603,19.94759971770581,18.07046898851027,0.4545871189862201,390.4781952082711,6.145022292793962
2018-07-18 19:56:55.543326378,-2.11999988556,-43.151374816899995,11.170000076300001,16.0793743134,-44.0,-40.8932800293,False,2.273166037310917,5.32041020056409,0.09818162344856414,0.4008312664211486,-0.76849758465187,-0.4794669601570605,0.6413664181495018,-0.5514454457984386,0.29324233718014225,0.9034865482615568,0.09822923382062426,17.57873203148953,19.927589965113828,17.981056690414935,0.4352074302451431,390.72237727497867,6.612786669257529
2018-07-18 19:56:55.626967907,3.0,-43.151374816899995,10.0199995041,16.0793743134,-44.0,-40.8932800293,False,2.2737801123538484,5.310047865943461,0.08138697287868733,0.3968124723305547,-0.7807789568150146,-0.46656720203755553,0.6626562281401928,-0.525831264440893,0.28735875066042477,0.7843886392532596,0.08302524543658633,17.549591053753456,19.90758021252185,17.8916443923196,0.41582774150406604,390.9665593416863,7.080551045721097
2018-07-18 19:56:55.650279522,3.0,-43.151374816899995,10.0,16.0793743134,-44.0,-40.8932800293,False,2.27439418739678,5.299685531322833,0.06459232230881054,0.3927936782399609,-0.7930603289781591,-0.4536674439180506,0.6839460381308838,-0.5002170830833473,0.2814751641407072,0.6652907302449625,0.06782125705254842,17.520450076017386,19.887570459929872,17.80223209422426,0.396448052762989,391.2107414083939,7.548315422184665
2018-07-18 19:56:55.696157455,7.149999618530001,-43.151374816899995,8.699999809269999,16.0793743134,-44.0,-40.8932800293,False,2.275008262439712,5.289323196702204,0.047797671738933734,0.38877488414936706,-0.8053417011413038,-0.44076768579854564,0.7052358481215748,-0.4746029017258017,0.27559157762098974,0.5461928212366655,0.05261726866851049,17.491309098281313,19.86756070733789,17.712819796128922,0.3770683640219119,391.4549234751015,8.016079798648232
2018-07-18 19:56:55.751691341,7.149999618530001,-43.151374816899995,8.63999938965,16.0793743134,-44.0,-40.8932800293,False,2.2756223374826434,5.278960862081576,0.03155416102998343,0.3831970126748855,-0.8173471564774986,-0.42843590760174916,0.727120428511947,-0.4475586807088053,0.26847414503434064,0.4367659507111814,0.0427021294547609,17.364853295811933,19.825559913793917,17.61784922337432,0.3592295676574619,391.70573173877756,8.422772037135289
2018-07-18 19:56:55.838790894,10.800000190699999,-43.151374816899995,7.2999997139,16.0793743134,-44.0,-40.8932800293,False,2.276236412525575,5.268598527460949,0.019380606217105835,0.36610595436554016,-0.8273150721685254,-0.42029844268033784,0.7533971595461185,-0.40995416682201824,0.25224523379958086,0.39875597975108656,0.07184310719083359,16.519764941465827,19.62116374091213,17.48183293005899,0.35276966884348837,392.00547191852786,8.378470025949646
2018-07-18 19:56:55.891929388,13.4399995804,-43.151374816899995,5.849999904630001,16.0793743134,-44.0,-40.8932800293,False,2.277308860211652,5.261262646169399,0.00720705140422824,0.34901489605619485,-0.8372829878595522,-0.4121609777589265,0.7796738905802899,-0.3723496529352312,0.23601632256482108,0.3607460087909918,0.10098408492690628,15.674676587119718,19.416767568030345,17.34581663674366,0.34630977002951485,392.30521209827816,8.334168014764005
2018-07-18 19:56:55.969125271,13.420000076300001,-25.2130870819,5.7999997139,17.1423034668,-44.0,-49.2558746338,False,2.278426209707669,5.254223233775393,-0.0049665034086493545,0.3319238377468495,-0.8472509035505792,-0.40402351283751525,0.8059506216144614,-0.33474513904844416,0.2197874113300613,0.322736037830897,0.13012506266297896,14.82958823277361,19.21237139514856,17.20980034342833,0.33984987121554133,392.60495227802846,8.289866003578364
2018-07-18 19:56:55.997266531,15.089999198900001,-25.2130870819,4.17999982834,17.1423034668,-44.0,-49.2558746338,False,2.2795435592036863,5.247183821381387,-0.01714005822152695,0.3148327794375042,-0.857218819241606,-0.39588604791610393,0.8322273526486329,-0.2971406251616572,0.20355850009530152,0.28472606687080215,0.15926604039905165,13.984499878427501,19.007975222266772,17.073784050112998,0.33338997240156776,392.90469245777876,8.245563992392722
2018-07-18 19:56:56.044193506,15.0699996948,-25.2130870819,4.150000095369999,17.1423034668,-44.0,-49.2558746338,False,2.280660908699704,5.240144408987381,-0.029313613034404544,0.2977417211281589,-0.8671867349326329,-0.3877485829946926,0.8585040836828043,-0.2595361112748701,0.18732958886054174,0.24671609591070737,0.18840701813512434,13.139411524081392,18.803579049384986,16.93776775679767,0.32693007358759424,393.204432637529,8.20126198120708
2018-07-18 19:56:56.097611427,16.1999988556,-25.2130870819,1.92999994755,17.1423034668,-44.0,-49.2558746338,False,2.2817782581957213,5.233104996593374,-0.04148716784728214,0.28065066281881357,-0.8771546506236597,-0.37961111807328135,0.8847808147169758,-0.2219315973880831,0.17110067762578196,0.20870612495061255,0.21754799587119703,12.294323169735286,18.5991828765032,16.80175146348234,0.3204701747736207,393.5041728172793,8.15695997002144
2018-07-18 19:56:56.149180412,16.1999988556,-25.2130870819,1.90999996662,17.1423034668,-44.0,-49.2558746338,False,2.2828956076917386,5.226065584199368,-0.05366072266015974,0.2635596045094683,-0.8871225663146867,-0.37147365315187003,0.9110575457511473,-0.18432708350129606,0.15487176639102218,0.17069615399051774,0.2466889736072697,11.449234815389177,18.394786703621413,16.66573517016701,0.3140102759596472,393.8039129970296,8.112657958835797
2018-07-18 19:56:56.200528145,16.8699989319,-10.752889633199999,1.23000001907,17.9902896881,-44.0,-51.421020507799994,False,2.284012957187756,5.219026171805361,-0.0639191705269784,0.24735577094068556,-0.894780478164857,-0.3650623482420589,0.9301183247505247,-0.15458955327297264,0.14648183565599052,0.13412753972738062,0.2441201040102728,10.948150259383642,18.23680121079115,16.53949208904196,0.31195970169863607,394.06984823696007,7.99023105993564
2018-07-18 19:56:56.242077351,16.8799991608,-10.752889633199999,1.2200000286100001,17.9902896881,-44.0,-51.421020507799994,False,2.2851303066837736,5.211986759411356,-0.0710424029901683,0.23260441013266261,-0.8986566901787862,-0.36147693431898026,0.9373658919510052,-0.13773103661455352,0.15092507461003002,0.09991856586329523,0.1896391456341368,11.010233211951796,18.154794492561358,16.429248702067127,0.3171276184396523,394.2804415189597,7.739906159373814
2018-07-18 19:56:56.342699528,17.1000003815,-10.752889633199999,-0.0399999991059,17.9902896881,-44.0,-51.421020507799994,False,2.286247656179791,5.204947347017349,-0.0781656354533582,0.21785304932463967,-0.9025329021927155,-0.3578915203959016,0.9446134591514855,-0.12087251995613442,0.15536831356406955,0.06570959199920984,0.13515818725800083,11.072316164519952,18.07278777433157,16.319005315092294,0.3222955351806685,394.4910348009593,7.489581258811988
2018-07-18 19:56:56.412526131,16.9400005341,-10.752889633199999,-1.26999998093,17.9902896881,-44.0,-51.421020507799994,False,2.2872754369057766,5.198049282246536,-0.08528886791654808,0.20310168851661675,-0.9064091142066448,-0.35430610647282296,0.951861026351966,-0.10401400329771532,0.15981155251810905,0.03150061813512445,0.08067722888186482,11.134399117088106,17.990781056101778,16.208761928117465,0.3274634519216847,394.7016280829589,7.239256358250162
2018-07-18 19:56:56.436938286,16.9599990845,-10.752889633199999,-1.26999998093,17.9902896881,-44.0,-51.421020507799994,False,2.288214312334101,5.191291518079483,-0.09241210037973799,0.1883503277085938,-0.9102853262205741,-0.35072069254974436,0.9591085935524465,-0.0871554866392962,0.16425479147214858,-0.002708355728960943,0.02619627050572884,11.196482069656263,17.908774337871986,16.09851854114263,0.33263136866270093,394.9122213649585,6.988931457688336
2018-07-18 19:56:56.495662689,16.5499992371,-10.752889633199999,-2.6099998951,17.9902896881,-44.0,-51.421020507799994,False,2.2891531877624263,5.18453375391243,-0.09953533284292787,0.17359896690057086,-0.9141615382345034,-0.3471352786266657,0.966356160752927,-0.07029696998087709,0.16869803042618808,-0.03691732959304633,-0.028284687870407166,11.258565022224417,17.826767619642197,15.988275154167798,0.3377992854037171,395.1228146469581,6.73860655712651
2018-07-18 19:56:56.548355579,16.5900001526,-10.752889633199999,-2.6099998951,17.9902896881,-44.0,-51.421020507799994,False,2.290092063190751,5.177775989745378,-0.10665856530611777,0.15884760609254792,-0.9180377502484327,-0.34354986470358706,0.9736037279534074,-0.05343845332245799,0.1731412693802276,-0.07112630345713172,-0.08276564624654315,11.320647974792571,17.744760901412405,15.878031767192967,0.3429672021447333,395.3334079289577,6.488281656564684
2018-07-18 19:56:56.598218679,16.1499996185,4.26345920563,-3.86999988556,14.9462976456,-44.0,-53.864963531499995,False,2.2910309386190755,5.171018225578325,-0.11378179776930766,0.14409624528452497,-0.921913962262362,-0.33996445078050846,0.9808512951538879,-0.03657993666403887,0.17758450833426712,-0.10533527732121714,-0.13724660462267912,11.382730927360727,17.662754183182614,15.767788380218136,0.34813511888574955,395.54400121095733,6.237956756002858
2018-07-18 19:56:56.642144918,16.1900005341,4.26345920563,-3.8599998951,14.9462976456,-44.0,-53.864963531499995,False,2.2919698140474,5.164260461411272,-0.11789220819776294,0.12774701707282457,-0.924976774925889,-0.33569957784116233,0.9503731546740859,-0.004442057018518002,0.16475361777720188,-0.11687000551165547,-0.08645427951402526,11.042346019221647,17.529403449143697,15.631451905536704,0.3425681486241196,395.82973900712443,6.12581143347216
2018-07-18 19:56:56.692362547,15.630000114400001,4.26345920563,-4.980000019069999,14.9462976456,-44.0,-53.864963531499995,False,2.292908689475725,5.15750269724422,-0.12030159948699012,0.1104956436284259,-0.9275803477647871,-0.33105108689263174,0.8985953323460867,0.03632244861972034,0.1421698694100395,-0.1156030064796523,0.02377463627024967,10.47473045288423,17.367064227710152,15.480383448322362,0.3309403330691299,396.15790289263015,6.091681375093006
2018-07-18 19:56:56.750393867,15.6599998474,4.26345920563,-4.96999979019,14.9462976456,-44.0,-53.864963531499995,False,2.2938475649040497,5.150744933077167,-0.1227109907762173,0.09324427018402723,-0.9301839206036852,-0.3264025959441011,0.8468175100180875,0.0770869542579587,0.11958612104287716,-0.11433600744764914,0.1340035520545246,9.907114886546815,17.204725006276608,15.32931499110802,0.3193125175141402,396.48606677813586,6.057551316713852
2018-07-18 19:56:56.773262739,15.039999961900001,4.26345920563,-6.19000005722,14.9462976456,-44.0,-53.864963531499995,False,2.2947864403323743,5.143987168910114,-0.12512038206544449,0.07599289673962856,-0.9327874934425832,-0.3217541049955705,0.7950396876900883,0.11785145989619705,0.0970023726757148,-0.11306900841564599,0.24423246783879957,9.3394993202094,17.042385784843063,15.178246533893677,0.3076847019591505,396.8142306636416,6.0234212583346975
2018-07-18 19:56:56.812044382,15.059999465899999,4.26345920563,-6.19000005722,14.9462976456,-44.0,-53.864963531499995,False,2.295822433064137,5.137272382593813,-0.12752977335467167,0.0587415232952299,-0.9353910662814813,-0.31710561404703985,0.743261865362089,0.15861596553443538,0.07441862430855245,-0.11180200938364282,0.35446138362307444,8.771883753871984,16.880046563409522,15.027178076679336,0.2960568864041607,397.14239454914735,5.989291199955543
2018-07-18 19:56:56.857234478,15.079999923699999,4.26345920563,-6.19000005722,14.9462976456,-44.0,-53.864963531499995,False,2.2978062906774475,5.130977060100838,-0.12993916464389885,0.04149014985083123,-0.9379946391203793,-0.31245712309850926,0.6914840430340898,0.19938047117267374,0.05183487594139008,-0.11053501035163966,0.4646902994073494,8.204268187534568,16.717707341975977,14.876109619464993,0.284429070849171,397.47055843465307,5.955161141576389
2018-07-18 19:56:56.896322012,14.3199996948,4.26345920563,-7.5299997329699995,14.9462976456,-44.0,-53.864963531499995,False,2.2997901482907586,5.124681737607863,-0.13234855593312603,0.024238776406432558,-0.9405982119592774,-0.30780863214997867,0.6397062207060906,0.2401449768109121,0.029251127574227737,-0.10926801131963651,0.5749192151916244,7.636652621197152,16.555368120542433,14.725041162250651,0.2728012552941813,397.7987223201588,5.921031083197234
2018-07-18 19:56:56.984101057,13.3400001526,13.0547399521,-8.710000038150001,10.1779193878,-44.0,-51.677299499499995,False,2.3017740059040697,5.1183864151148875,-0.1347579472223532,0.006987402962033901,-0.9432017847981754,-0.303160141201448,0.5879283983780914,0.2809094824491505,0.006667379207065366,-0.10800101228763334,0.6851481309758993,7.069037054859736,16.393028899108888,14.57397270503631,0.2611734397391916,398.1268862056645,5.88690102481808
2018-07-18 19:56:57.012851238,13.359999656700001,13.0547399521,-8.710000038150001,10.1779193878,-44.0,-51.677299499499995,False,2.3037578635173808,5.112091092621912,-0.1333062324987301,-0.004426986675579363,-0.9428396692727724,-0.3041546991273528,0.5290993504883569,0.26867505175593515,-0.018506160997456236,-0.1192645174436982,0.6564023639470563,6.877336614164361,16.207122892436622,14.496352352105887,0.25883839536378156,398.3679268306835,5.960983507531261
2018-07-18 19:56:57.047981739,13.369999885599999,13.0547399521,-8.710000038150001,10.1779193878,-44.0,-51.677299499499995,False,2.3057417211306914,5.105795770128937,-0.13142112832468508,-0.01518620466141064,-0.9421446703595397,-0.3057826604983473,0.4694788385049583,0.25049176086225083,-0.04397039212249774,-0.1319345077637298,0.6120573978269457,6.727830728387988,16.018571634360015,14.426976174146109,0.25754641714118137,398.59918831421925,6.047212295877255
2018-07-18 19:56:57.089806557,12.210000038099999,13.0547399521,-9.71999931335,10.1779193878,-44.0,-51.677299499499995,False,2.3077255787440025,5.099500447635962,-0.12953602415064006,-0.025945422647241912,-0.941449671446307,-0.30741062186934176,0.4098583265215596,0.2323084699685665,-0.06943462324753923,-0.1446044980837614,0.567712431706835,6.578324842611615,15.830020376283404,14.35759999618633,0.25625443891858124,398.830449797755,6.133441084223248
2018-07-18 19:56:57.147513628,12.2299995422,13.0547399521,-9.710000038150001,10.1779193878,-44.0,-51.677299499499995,False,2.3097094363573136,5.093205125142987,-0.127650919976595,-0.03670464063307319,-0.9407546725330743,-0.30903858324033623,0.350237814538161,0.2141251790748822,-0.09489885437258072,-0.15727448840379302,0.5233674655867244,6.428818956835243,15.641469118206794,14.288223818226552,0.25496246069598105,399.0617112812908,6.219669872569242
2018-07-18 19:56:57.211708069,10.969999313399999,13.0547399521,-10.5599994659,10.1779193878,-44.0,-51.677299499499995,False,2.3116932939706247,5.086909802650012,-0.12576581580254997,-0.04746385861890446,-0.9400596736198416,-0.3106665446113307,0.29061730255476237,0.1959418881811979,-0.12036308549762222,-0.16994447872382462,0.47902249946661385,6.27931307105887,15.452917860130185,14.218847640266773,0.25367048247338086,399.2929727648266,6.305898660915235
2018-07-18 19:56:57.250571728,10.969999313399999,13.0547399521,-10.5599994659,10.1779193878,-44.0,-51.677299499499995,False,2.3136771515839354,5.0806144801570365,-0.12388071162850493,-0.05822307660473574,-0.9393646747066089,-0.31229450598232517,0.23099679057136369,0.1777585972875136,-0.1458273166226637,-0.18261446904385623,0.4346775333465032,6.1298071852824965,15.264366602053574,14.149471462306995,0.25237850425078073,399.5242342483623,6.392127449261229
2018-07-18 19:56:57.319958448,9.77999973297,13.0547399521,-11.3499994278,10.1779193878,-44.0,-51.677299499499995,False,2.3158376550065864,5.073462448178957,-0.12199560745445989,-0.068982294590567,-0.9386696757933761,-0.31392246735331963,0.17137627858796506,0.15957530639382927,-0.1712915477477052,-0.19528445936388783,0.39033256722639265,5.980301299506124,15.075815343976965,14.080095284347216,0.25108652602818055,399.75549573189807,6.478356237607223
2018-07-18 19:56:57.369728804,9.789999961849999,13.0547399521,-11.3499994278,10.1779193878,-44.0,-51.677299499499995,False,2.3180797611129003,5.065914653666997,-0.11908034824373115,-0.07904225785436232,-0.9378558465663307,-0.3159757351889273,0.11674978171937331,0.14846242820567174,-0.19018050490761101,-0.20694704984195972,0.33712248249703647,5.810244456953773,14.895932764633503,14.010198958624024,0.24938364280443143,399.98511449919204,6.470953300031666
2018-07-18 19:56:57.393497229,8.710000038150001,13.0547399521,-11.9799995422,10.1779193878,-44.0,-51.677299499499995,False,2.320321867219214,5.058366859155037,-0.11071715374284832,-0.085404239415083,-0.9364135877950833,-0.3202782199047009,0.08853394170793272,0.1747411556717417,-0.17429637859804978,-0.21328204500197553,0.23702955896878664,5.531504669913077,14.76189415935958,13.9375518514597,0.2455077042861446,400.20604582482264,5.968382581140227
2018-07-18 19:56:57.444552183,8.72000026703,13.0547399521,-11.9799995422,10.1779193878,-44.0,-51.677299499499995,False,2.3225639733255274,5.050819064643078,-0.1023539592419655,-0.09176622097580367,-0.9349713290238361,-0.32458070462047456,0.06031810169649214,0.2010198831378117,-0.15841225228848854,-0.21961704016199135,0.1369366354405368,5.252764882872381,14.627855554085658,13.864904744295378,0.24163176576785775,400.4269771504532,5.465811862248788
2018-07-18 19:56:57.492552280,7.769999980930001,15.949555397000001,-12.529999733,0.8300593495370001,-44.0,-48.6635704041,False,2.3248060794318413,5.043271270131118,-0.09399076474108267,-0.09812820253652435,-0.9335290702525887,-0.32888318933624816,0.032102261685051564,0.22729861060388168,-0.14252812597892733,-0.22595203532200717,0.03684371191228697,4.974025095831685,14.493816948811734,13.792257637131055,0.2377558272495709,400.6479084760838,4.963241143357349
2018-07-18 19:56:57.551904202,7.769999980930001,15.949555397000001,-12.529999733,0.8300593495370001,-44.0,-48.6635704041,False,2.327048185538155,5.035723475619158,-0.08562757024019985,-0.10449018409724503,-0.9320868114813414,-0.33318567405202176,0.0038864216736109736,0.25357733806995164,-0.12664399966936613,-0.23228703048202298,-0.06324921161596292,4.695285308790989,14.35977834353781,13.719610529966731,0.23387988873128404,400.86883980171433,4.46067042446591
2018-07-18 19:56:57.626796007,6.909999847410001,15.949555397000001,-12.969999313399999,0.8300593495370001,-44.0,-48.6635704041,False,2.3292902916444684,5.028175681107199,-0.07726437573931702,-0.1108521656579657,-0.930644552710094,-0.33748815876779537,-0.024329418337829603,0.2798560655360216,-0.11075987335980489,-0.23862202564203877,-0.1633421351442127,4.416545521750294,14.225739738263886,13.64696342280241,0.2300039502129972,401.0897711273449,3.9580997055744715
2018-07-18 19:56:57.639387131,6.909999847410001,15.949555397000001,-12.9799995422,0.8300593495370001,-44.0,-48.6635704041,False,2.3315323977507822,5.020627886595239,-0.0689011812384342,-0.11721414721868637,-0.9292022939388467,-0.341790643483569,-0.052545258349270194,0.30613479300209157,-0.09487574705024367,-0.24495702080205461,-0.26343505867246264,4.137805734709598,14.091701132989963,13.574316315638086,0.22612801169471036,401.3107024529755,3.4555289866830323
2018-07-18 19:56:57.674424887,6.150000095369999,15.949555397000001,-13.3499994278,0.8300593495370001,-44.0,-48.6635704041,False,2.333774503857096,5.013080092083279,-0.060537986737551376,-0.12357612877940705,-0.9277600351675994,-0.3460931281993426,-0.08076109836071078,0.3324135204681615,-0.07899162074068244,-0.2512920159620704,-0.3635279822007125,3.8590659476689018,13.957662527716039,13.501669208473762,0.2222520731764235,401.531633778606,2.9529582677915935
2018-07-18 19:56:57.718917608,6.150000095369999,15.949555397000001,-13.3499994278,0.8300593495370001,-44.0,-48.6635704041,False,2.3359920571958317,5.005586410645543,-0.052771624240534276,-0.12706357113981115,-0.9270384789984208,-0.34859860788703084,-0.10529280766255025,0.3418992337432191,-0.06891856921436469,-0.2618735889174242,-0.39036743875938257,3.7677064058474934,13.858559222196602,13.455614219925364,0.219999998808,401.6762416421031,2.6403477573421017
