time,roll_commanded,roll_measured,pitch_commanded,pitch_measured,yaw_commanded,yaw_measured,label,wind_estimation_linear_x,wind_estimation_linear_y,orientation_x,orientation_y,orientation_z,orientation_w,angular_velocity_x,angular_velocity_y,angular_velocity_z,linear_acceleration_x,linear_acceleration_y,linear_acceleration_z,airspeed,groundspeed,throttle,altitude,climb
2018-07-21 00:58:24.589447021,44.819999694799996,-13.5468463898,-6.30999994278,-7.14274072647,-44.0,-84.1689682007,False,-0.17082829500900001,-3.5848927771300008,0.0007176126118280001,-0.139650140369,-0.98938812513,-0.0401056252855,0.802229464054,-0.232096731663,0.052951496094500006,-1.55925735,0.2941995,15.9848395,23.1060962677,22.8210296631,0.0,419.649993896,-0.012366770766700001
2018-07-21 00:58:24.623008490,44.840000152600005,-13.5468463898,-6.2899999618499995,-7.14274072647,-44.0,-84.1689682007,False,-0.1749833405785399,-3.585081443041336,-0.0033130691389911425,-0.15008309726783492,-0.9872966950001955,-0.04253461907652918,0.7454027926892954,-0.22729768911271286,0.014799334272171207,-1.5900251334123223,0.38650285023696684,15.387431705410743,23.068024081640324,22.754479947638387,0.0,419.7532691046868,0.2480820915146103
2018-07-21 00:58:24.690536022,44.86999893189999,-13.5468463898,-4.65999984741,-7.14274072647,-44.0,-84.1689682007,False,-0.17913838614807978,-3.5852701089526704,-0.007343750889810285,-0.16051605416666984,-0.985205264870391,-0.04496361286755837,0.6885761213245908,-0.22249864656242574,-0.023352827550157593,-1.6207929168246444,0.47880620047393374,14.790023910821485,23.02995189558065,22.687930232176775,0.0,419.8565443133736,0.5085309537959206
2018-07-21 00:58:24.736152649,44.8799972534,-13.5468463898,-4.63999986649,-7.14274072647,-44.0,-84.1689682007,False,-0.18329343171761966,-3.5854587748640054,-0.011374432640629427,-0.17094901106550475,-0.9831138347405866,-0.047392606658587556,0.6317494499598862,-0.21769960401213861,-0.061504989372486385,-1.6515607002369668,0.5711095507109005,14.192616116232227,22.991879709520973,22.621380516715167,0.0,419.95981952206046,0.7689798160772309
2018-07-21 00:58:24.805542946,44.8799972534,16.0395507812,-2.99000000954,-0.7231782674789999,-44.0,-85.4593734741,False,-0.18744847728715958,-3.58564744077534,-0.015405114391448569,-0.18138196796433964,-0.981022404610782,-0.04982160044961675,0.5749227785951816,-0.2129005614618515,-0.09965715119481519,-1.682328483649289,0.6634129009478674,13.59520832164297,22.953807523461297,22.554830801253555,0.0,420.06309473074725,1.0294286783585413
2018-07-21 00:58:24.860965490,44.8799972534,16.0395507812,-1.33999991417,-0.7231782674789999,-44.0,-85.4593734741,False,-0.19160352285669946,-3.585836106686675,-0.019435796142267713,-0.19181492486317456,-0.9789309744809775,-0.05225059424064593,0.518096107230477,-0.20810151891156436,-0.137809313017144,-1.7130962670616114,0.7557162511848343,12.997800527053712,22.91573533740162,22.488281085791943,0.0,420.16636993943405,1.2898775406398517
2018-07-21 00:58:24.899241209,44.8799972534,16.0395507812,-1.32999992371,-0.7231782674789999,-44.0,-85.4593734741,False,-0.19575856842623934,-3.58602477259801,-0.023466477893086854,-0.20224788176200947,-0.976839544351173,-0.05467958803167512,0.4612694358657725,-0.20330247636127724,-0.17596147483947278,-1.7438640504739336,0.8480196014218011,12.400392732464454,22.877663151341945,22.42173137033033,0.0,420.26964514812084,1.5503264029211619
2018-07-21 00:58:24.960477352,44.86999893189999,16.0395507812,0.28000000119199997,-0.7231782674789999,-44.0,-85.4593734741,False,-0.19991361399577923,-3.5862134385093447,-0.027497159643905995,-0.21268083866084436,-0.9747481142213685,-0.057108581822704306,0.4044427645010679,-0.19850343381099012,-0.2141136366618016,-1.774631833886256,0.9403229516587679,11.802984937875197,22.83959096528227,22.35518165486872,0.0,420.37292035680764,1.8107752652024722
2018-07-21 00:58:25.054058790,44.8600006104,16.0395507812,0.310000002384,-0.7231782674789999,-44.0,-85.4593734741,False,-0.2040686595653191,-3.5864021044206797,-0.03158514772401485,-0.22189251434244706,-0.9724671333209575,-0.06124608468584139,0.36611378602530176,-0.19533542212946445,-0.24020311754273935,-1.7752980044233806,0.9301909625592418,11.412694210979463,22.780717117518172,22.283557463981833,0.0,420.4908548504913,1.9762137787439178
2018-07-21 00:58:25.108189344,43.819999694799996,25.5312290192,-0.34999999404,1.8836219310799998,-44.0,-82.6727523804,False,-0.208223705134859,-3.586590770332015,-0.0357793501213417,-0.22884060845762794,-0.9698348298715771,-0.06855022074297157,0.36206932454196444,-0.1951904417995225,-0.24393504323058177,-1.7201723924763033,0.7302003703791471,11.406284256101895,22.683288465732943,22.202527995367063,0.0,420.6359595706777,1.9655555252244075
2018-07-21 00:58:25.118893862,43.819999694799996,25.5312290192,-0.329999983311,1.8836219310799998,-44.0,-82.6727523804,False,-0.21458178294655766,-3.5863149052393606,-0.03997355251866856,-0.23578870257280884,-0.9672025264221967,-0.07585435680010175,0.35802486305862713,-0.19504546146958057,-0.24766696891842419,-1.665046780529226,0.5302097781990522,11.399874301224328,22.585859813947714,22.12149852675229,0.0,420.78106429086415,1.9548972717048974
2018-07-21 00:58:25.185079336,42.159999847399995,25.5312290192,-1.5499999523199999,1.8836219310799998,-44.0,-82.6727523804,False,-0.22151588295001343,-3.5859175802052965,-0.044167754915995415,-0.24273679668798973,-0.9645702229728164,-0.08315849285723192,0.35398040157528987,-0.19490048113963862,-0.2513988946062666,-1.6099211685821484,0.3302191860189575,11.39346434634676,22.488431162162485,22.04046905813752,0.0,420.92616901105055,1.944239018185387
2018-07-21 00:58:25.224369764,42.1499977112,25.5312290192,-1.53999996185,1.8836219310799998,-44.0,-82.6727523804,False,-0.2284499829534692,-3.5855202551712324,-0.04836195731332227,-0.2496848908031706,-0.9619379195234361,-0.0904626289143621,0.34993594009195256,-0.19475550080969667,-0.255130820294109,-1.554795556635071,0.13022859383886265,11.387054391469194,22.391002510377255,21.95943958952275,0.0,421.07127373123694,1.9335807646658767
2018-07-21 00:58:25.280579805,40.3099975586,25.5312290192,0.0999999940395,1.8836219310799998,-44.0,-82.6727523804,False,-0.23538408295692495,-3.5851229301371683,-0.05255615971064913,-0.2566329849183515,-0.9593056160740557,-0.09776676497149228,0.3458914786086153,-0.19461052047975472,-0.2588627459819514,-1.4996699446879935,-0.06976199834123209,11.380644436591627,22.293573858592026,21.87841012090798,0.0,421.2163784514234,1.9229225111463664
2018-07-21 00:58:25.308089972,40.3099975586,25.5312290192,0.119999997318,1.8836219310799998,-44.0,-82.6727523804,False,-0.2423181829603807,-3.5847256051031047,-0.05675036210797599,-0.2635810790335324,-0.9566733126246754,-0.10507090102862246,0.341847017125278,-0.1944655401498128,-0.26259467166979383,-1.4445443327409162,-0.26975259052132694,11.37423448171406,22.196145206806797,21.797380652293207,0.0,421.3614831716098,1.9122642576268563
2018-07-21 00:58:25.361502409,38.3099975586,25.5312290192,1.81999993324,1.8836219310799998,-44.0,-82.6727523804,False,-0.2492522829638365,-3.5843282800690406,-0.06094456450530284,-0.2705291731487133,-0.954041009175295,-0.11237503708575264,0.3378025556419407,-0.19432055981987084,-0.26632659735763625,-1.3894187207938389,-0.4697431827014218,11.367824526836493,22.098716555021564,21.716351183678437,0.0,421.50658789179624,1.901606004107346
2018-07-21 00:58:25.413752556,38.3099975586,25.5312290192,1.8399999141699999,1.8836219310799998,-44.0,-82.6727523804,False,-0.25618638296729224,-3.5839309550349765,-0.064118018026212,-0.2738162260353065,-0.9524320667018957,-0.11693248192714695,0.31413908606490515,-0.19423703941166665,-0.24920554393178324,-1.3621483327014217,-0.46216742938388616,11.328168014454977,21.96556314884487,21.654564036400473,0.0,421.62420557881677,2.0126572374719434
2018-07-21 00:58:25.452871323,38.2999992371,32.331829071,1.86000001431,3.21731877327,-44.0,-75.36153411869999,False,-0.263120482970748,-3.5835336300009124,-0.06685589336278776,-0.2755410242597006,-0.9512598170587642,-0.12031784732734363,0.28210371217202423,-0.1941797454355833,-0.22318602097034468,-1.3467644409952606,-0.366018106220379,11.274324393483413,21.817165127647673,21.600988052106754,0.0,421.7300938853053,2.1756448467051897
2018-07-21 00:58:25.486874342,36.090000152600005,32.331829071,1.06999993324,3.21731877327,-44.0,-75.36153411869999,False,-0.2700545829742038,-3.5831363049668483,-0.06959376869936351,-0.2772658224840948,-0.9500875674156327,-0.1237032127275403,0.2500683382791433,-0.1941224514595,-0.19716649800890612,-1.3313805492890993,-0.2698687830568719,11.220480772511848,21.668767106450474,21.547412067813035,0.0,421.83598219179385,2.338632455938436
2018-07-21 00:58:25.571963310,33.8999977112,32.331829071,-0.439999997616,3.21731877327,-44.0,-75.36153411869999,False,-0.27595623772700395,-3.5823746334940485,-0.07233164403593925,-0.27899062070848896,-0.9489153177725012,-0.127088578127737,0.2180329643862624,-0.19406515748341666,-0.17114697504746756,-1.3159966575829383,-0.1737194598933648,11.166637151540284,21.52036908525328,21.493836083519312,0.0,421.94187049828236,2.5016200651716827
2018-07-21 00:58:25.588376284,33.8999977112,32.331829071,-0.439999997616,3.21731877327,-44.0,-75.36153411869999,False,-0.2811268442898989,-3.5813549775863667,-0.075069519372515,-0.2807154189328831,-0.9477430681293696,-0.13047394352793368,0.18599759049338146,-0.19400786350733332,-0.14512745208602904,-1.300612765876777,-0.07757013672985769,11.11279353056872,21.371971064056083,21.440260099225593,0.0,422.0477588047709,2.664607674404929
2018-07-21 00:58:25.643149137,33.8899993896,32.331829071,-0.42999997735,3.21731877327,-44.0,-75.36153411869999,False,-0.28629745085279384,-3.580335321678685,-0.07780739470909076,-0.2824402171572773,-0.946570818486238,-0.13385930892813036,0.15396221660050055,-0.19395056953124998,-0.11910792912459048,-1.285228874170616,0.01857918643364942,11.058949909597157,21.223573042858888,21.38668411493187,0.0,422.15364711125943,2.8275952836381757
2018-07-21 00:58:25.684677362,31.3999996185,32.331829071,-1.9799998998599997,3.21731877327,-44.0,-75.36153411869999,False,-0.2914680574156888,-3.579315665771003,-0.08054527004566651,-0.28416501538167144,-0.9453985688431066,-0.13724467432832704,0.12192684270761964,-0.19389327555516664,-0.09308840616315192,-1.2698449824644547,0.11472850959715652,11.005106288625592,21.07517502166169,21.333108130638152,0.0,422.259535417748,2.990582892871422
2018-07-21 00:58:25.768644571,28.3699989319,34.386844635,-3.56999993324,4.400955200199999,-44.0,-71.7169723511,False,-0.29663866397858374,-3.5782960098633216,-0.08323739689236213,-0.2854970332607354,-0.9443385059577136,-0.14060285180815166,0.08993168922630623,-0.1923595440275468,-0.06877789242375396,-1.2536709815165874,0.2062030197472354,10.955344898736177,20.93099507108061,21.277854297251107,0.0,422.3691835814585,3.138352984220971
2018-07-21 00:58:25.795197487,28.359998703000002,34.386844635,-3.56999993324,4.400955200199999,-44.0,-71.7169723511,False,-0.3018092705414787,-3.57727635395564,-0.08508452222009527,-0.2795741671142891,-0.9453505984799621,-0.14345885240581044,0.05867943040571086,-0.16355514243037056,-0.07603378431498674,-1.2229031981042653,0.2113309836492891,10.980984718246445,20.864725365997156,21.191609604140286,0.0,422.5482785197393,3.0050465687775354
2018-07-21 00:58:25.855188370,25.239999771100003,34.386844635,-5.06999969482,4.400955200199999,-44.0,-71.7169723511,False,-0.30697987710437363,-3.576256698047958,-0.0869316475478284,-0.2736513009678428,-0.9463626910022105,-0.1463148530034692,0.02742717158511547,-0.13475074083319433,-0.08328967620621952,-1.192135414691943,0.21645894755134282,11.006624537756714,20.798455660913707,21.105364911029465,0.0,422.7273734580201,2.871740153334099
2018-07-21 00:58:25.898387909,25.229999542199998,34.386844635,-5.06999969482,4.400955200199999,-44.0,-71.7169723511,False,-0.3121504836672686,-3.5752370421402766,-0.08877877287556153,-0.2677284348213965,-0.9473747835244589,-0.14917085360112797,-0.0038250872354799043,-0.10594633923601812,-0.09054556809745229,-1.1613676312796206,0.22158691145339654,11.032264357266982,20.732185955830253,21.019120217918644,0.0,422.9064683963009,2.7384337378906634
2018-07-21 00:58:25.986368656,22.010000228899997,34.386844635,-6.589999675750001,4.400955200199999,-44.0,-71.7169723511,False,-0.3173210902301635,-3.5742173862325948,-0.09062589820329467,-0.26180556867495025,-0.9483868760467073,-0.15202685419878673,-0.03507734605607528,-0.0771419376388419,-0.09780145998868509,-1.1305998478672985,0.22671487535545023,11.057904176777251,20.665916250746804,20.93287552480782,0.0,423.08556333458176,2.6051273224472276
2018-07-21 00:58:26.063164949,18.7099990845,34.386844635,-7.730000019069999,4.400955200199999,-44.0,-71.7169723511,False,-0.32398813202041393,-3.572902449717741,-0.0924730235310278,-0.2558827025285039,-0.9493989685689558,-0.1548828547964455,-0.06632960487667068,-0.048337536041665685,-0.10505735187991785,-1.0998320644549762,0.23184283925750396,11.083543996287519,20.59964654566335,20.846630831697,0.0,423.26465827286256,2.4718209070037913
2018-07-21 00:58:26.110375643,18.7099990845,34.386844635,-7.73999977112,4.400955200199999,-44.0,-71.7169723511,False,-0.333115658655643,-3.5711020037430172,-0.09432014885876094,-0.24995983638205765,-0.9504110610912042,-0.15773885539410426,-0.09758186369726606,-0.01953313444448948,-0.11231324377115065,-1.069064281042654,0.23697080315955768,11.109183815797788,20.533376840579898,20.760386138586178,0.0,423.44375321114336,2.3385144915603555
2018-07-21 00:58:26.148088217,18.7199993134,34.386844635,-7.75,4.400955200199999,-44.0,-71.7169723511,False,-0.34224318529087205,-3.569301557768294,-0.09616727418649408,-0.24403697023561136,-0.9514231536134526,-0.16059485599176304,-0.12883412251786142,0.009271267152686752,-0.11956913566238342,-1.0382964976303317,0.24209876706161138,11.134823635308056,20.467107135496448,20.674141445475357,0.0,423.62284814942416,2.2052080761169197
2018-07-21 00:58:26.200041056,15.869999885599999,34.386844635,-9.050000190730001,4.400955200199999,-44.0,-71.7169723511,False,-0.35137071192610114,-3.5675011117935704,-0.0946816671472844,-0.23672990259685384,-0.9525169416846359,-0.16492656168672512,-0.17032811196268963,0.034994908703413444,-0.13292153702867263,-1.021952080963665,0.2729827430094787,10.928144226165086,20.35012089241651,20.588756670551305,0.0,423.78093234982936,2.1250488351273145
2018-07-21 00:58:26.234022617,15.880000114400001,29.4934234619,-9.06999969482,6.15081548691,-44.0,-69.029838562,False,-0.3604982385613302,-3.565700665818847,-0.08823454876480648,-0.2273621440146556,-0.9537323517008499,-0.17145518173707108,-0.2270691891037441,0.05613215559852355,-0.15534994498188787,-1.0270800448657187,0.3422102556872038,10.3756061157188,20.15763183337188,20.50465207458199,0.0,423.90773740663036,2.1240109515952925
2018-07-21 00:58:26.334537506,13.519999504100001,29.4934234619,-10.5,6.15081548691,-44.0,-69.029838562,False,-0.3696257651965592,-3.5639002198441236,-0.08178743038232855,-0.21799438543245733,-0.954947761717064,-0.17798380178741707,-0.28381026624479855,0.07726940249363368,-0.1777783529351031,-1.0322080087677725,0.41143776836492896,9.82306800527251,19.96514277432725,20.42054747861268,0.0,424.0345424634313,2.12297306806327
2018-07-21 00:58:26.352604389,13.519999504100001,29.4934234619,-10.5100002289,6.15081548691,-44.0,-69.029838562,False,-0.3787532918317883,-3.5620997738694,-0.07534031199985063,-0.20862662685025907,-0.956163171733278,-0.18451242183776304,-0.3405513433858531,0.09840664938874379,-0.20020676088831835,-1.0373359726698261,0.48066528104265405,9.270529894826224,19.772653715282622,20.336442882643365,0.0,424.16134752023225,2.121935184531248
2018-07-21 00:58:26.402264118,11.559999465899999,29.4934234619,-11.920000076300001,6.15081548691,-44.0,-69.029838562,False,-0.3878808184670174,-3.560299327894677,-0.0688931936173727,-0.1992588682680608,-0.9573785817494921,-0.191041041888109,-0.39729242052690755,0.1195438962838539,-0.2226351688415336,-1.04246393657188,0.5498927937203791,8.717991784379937,19.580164656237994,20.252338286674053,0.0,424.2881525770332,2.1208973009992262
2018-07-21 00:58:26.458212137,9.710000038150001,29.4934234619,-13.219999313399999,6.15081548691,-44.0,-69.029838562,False,-0.3970083451022464,-3.5584988819199532,-0.06244607523489479,-0.18989110968586254,-0.9585939917657061,-0.197569661938455,-0.4540334976679621,0.14068114317896402,-0.24506357679474883,-1.0475919004739336,0.6191203063981042,8.16545367393365,19.387675597193365,20.16823369070474,0.0,424.41495763383415,2.119859417467204
2018-07-21 00:58:26.497694731,9.71999931335,29.4934234619,-13.239999771099999,6.15081548691,-44.0,-69.029838562,False,-0.40539554382571286,-3.556809733002544,-0.05599895685241686,-0.18052335110366427,-0.9598094017819202,-0.20409828198880095,-0.5107745748090166,0.16181839007407411,-0.2674919847479641,-1.0527198643759872,0.6883478190758293,7.612915563487363,19.195186538148736,20.084129094735427,0.0,424.5417626906351,2.118821533935182
2018-07-21 00:58:26.604259729,8.3499994278,29.4934234619,-14.7299995422,6.15081548691,-44.0,-69.029838562,False,-0.4101913645942456,-3.5556604932142344,-0.04955183846993894,-0.171155592521466,-0.9610248117981343,-0.2106269020391469,-0.567515651950071,0.18295563696918424,-0.2899203927011793,-1.057847828278041,0.7575753317535545,7.060377453041075,19.002697479104107,20.000024498766113,0.0,424.66856774743604,2.11778365040316
2018-07-21 00:58:26.658747911,8.3499994278,20.1842155457,-14.75,1.17646002769,-44.0,-64.8902130127,False,-0.4149871853627784,-3.5545112534259244,-0.042365595812578816,-0.16418647397629146,-0.9610900249154952,-0.21655977411254976,-0.5503233949791516,0.19320629092156638,-0.2863769896367512,-1.0600825980450237,0.65996198264218,6.933138880450238,18.837970993527726,19.93933870670723,0.0,424.7304672309396,2.057085992036185
2018-07-21 00:58:26.683433294,7.170000076289999,20.1842155457,-16.1199989319,1.17646002769,-44.0,-64.8902130127,False,-0.4197830061313112,-3.553362013637615,-0.03493594676750647,-0.15800726901760662,-0.9607764583312259,-0.22229645608912796,-0.5087836143247708,0.19987180181650396,-0.27428062069502684,-1.061364589020537,0.507405056556082,6.945958790205371,18.682387202828437,19.886365131197156,0.0,424.77099218829704,1.9767413395468563
2018-07-21 00:58:26.739872932,7.170000076289999,20.1842155457,-16.1399993896,1.17646002769,-44.0,-64.8902130127,False,-0.424578826899844,-3.552212773849305,-0.027506297722434132,-0.1518280640589218,-0.9604628917469565,-0.22803313806570616,-0.46724383367039013,0.20653731271144157,-0.2621842517533025,-1.0626465799960505,0.35484813046998404,6.958778699960506,18.526803412129148,19.833391555687086,0.0,424.8115171456545,1.8963966870575277
2018-07-21 00:58:26.777795315,6.1999998092699995,20.1842155457,-17.5299987793,1.17646002769,-44.0,-64.8902130127,False,-0.42937464766837674,-3.5510635340609955,-0.02007664867736179,-0.14564885910023695,-0.9601493251626873,-0.23376982004228436,-0.4257040530160094,0.21320282360637918,-0.2500878828115782,-1.0639285709715638,0.20229120438388604,6.97159860971564,18.37121962142986,19.780417980177013,0.0,424.85204210301185,1.816052034568199
2018-07-21 00:58:26.845707893,6.1999998092699995,20.1842155457,-17.5499992371,1.17646002769,-44.0,-64.8902130127,False,-0.43417046843690954,-3.5499142942726856,-0.012646999632289449,-0.1394696541415521,-0.9598357585784179,-0.23950650201886256,-0.38416427236162864,0.21986833450131676,-0.23799151386985384,-1.0652105619470773,0.04973427829778798,6.984418519470775,18.21563583073057,19.727444404666944,0.0,424.8925670603693,1.7357073820788702
2018-07-21 00:58:26.885350466,5.409999847409999,20.1842155457,-18.8699989319,1.17646002769,-44.0,-64.8902130127,False,-0.43896628920544234,-3.5487650544843756,-0.005217350587217111,-0.13329044918286728,-0.9595221919941485,-0.24524318399544076,-0.34262449170724796,0.22653384539625437,-0.2258951449281295,-1.0664925529225908,-0.10282264778830996,6.997238429225908,18.060052040031277,19.67447082915687,0.0,424.9330920177267,1.6553627295895417
2018-07-21 00:58:26.935692072,5.400000095369999,20.1842155457,-18.8799991608,1.17646002769,-44.0,-64.8902130127,False,-0.44376210997397514,-3.547615814696066,0.0022122984578552343,-0.12711124422418246,-0.9592086254098792,-0.25097986597201893,-0.30108471105286716,0.23319935629119198,-0.21379877598640518,-1.0677745438981041,-0.255379573874408,7.010058338981043,17.904468249331988,19.6214972536468,0.0,424.97361697508416,1.575018077100213
2018-07-21 00:58:26.990322351,4.6300001144400005,13.2571210861,-20.0699996948,-4.548408031459999,-44.0,-60.619895935100004,False,-0.4485579307425079,-3.546466574907756,0.009652678540694523,-0.12120845178977045,-0.958860627148316,-0.2564026193184763,-0.2628806175258412,0.23844647053213427,-0.2012818942748534,-1.0691882197472353,-0.3839698529620851,7.029989231911533,17.760559506847077,19.569137677166193,0.0,425.0051453214724,1.4725119092077485
2018-07-21 00:58:27.065518141,4.1300001144400005,13.2571210861,-21.1499996185,-4.548408031459999,-44.0,-60.619895935100004,False,-0.4517095186940956,-3.5444226713835265,0.017186797394615705,-0.11772020405268285,-0.9582118580586272,-0.25908311374887794,-0.2538147321407073,0.23130347282494154,-0.18509170983863285,-1.0717522016982621,-0.30320442150473914,7.112036654344392,17.718635744352447,19.52214156279589,0.0,424.95808562498263,1.1764183861761346
2018-07-21 00:58:27.124966145,4.1199998855599995,13.2571210861,-21.1599998474,-4.548408031459999,-44.0,-60.619895935100004,False,-0.4547990601242891,-3.5423450069636013,0.02472091624853688,-0.11423195631559525,-0.9575630889689384,-0.2617636081792796,-0.24474884675557343,0.2241604751177488,-0.16890152540241227,-1.074316183649289,-0.22243899004739323,7.194084076777251,17.676711981857817,19.475145448425593,0.0,424.9110259284929,0.8803248631445206
2018-07-21 00:58:27.181180477,3.6899998188,13.2571210861,-22.1199989319,-4.548408031459999,-44.0,-60.619895935100004,False,-0.45788860155448263,-3.5402673425436766,0.03225503510245806,-0.11074370857850765,-0.9569143198792496,-0.26444410260968126,-0.23568296137043954,0.21701747741055608,-0.1527113409661917,-1.076880165600316,-0.14167355859004732,7.276131499210111,17.634788219363188,19.42814933405529,0.0,424.8639662320032,0.5842313401129067
2018-07-21 00:58:27.242142200,3.6799998283399997,13.2571210861,-22.1199989319,-4.548408031459999,-44.0,-60.619895935100004,False,-0.46097814298467615,-3.5381896781237514,0.03978915395637924,-0.10725546084142006,-0.9562655507895609,-0.26712459704008296,-0.22661707598530567,0.20987447970336334,-0.13652115652997115,-1.0794441475513428,-0.060908127132701384,7.35817892164297,17.59286445686856,19.381153219684993,0.0,424.81690653551345,0.2881378170812927
2018-07-21 00:58:27.277400494,3.25,13.2571210861,-22.8799991608,-4.548408031459999,-44.0,-60.619895935100004,False,-0.4640676844148697,-3.5361120137038267,0.047323272810300424,-0.10376721310433246,-0.9556167816998721,-0.2698050914704846,-0.2175511906001718,0.2027314819961706,-0.12033097209375059,-1.0820081295023696,0.019857304324644554,7.440226344075829,17.55094069437393,19.33415710531469,0.0,424.7698468390237,-0.007955705950321246
2018-07-21 00:58:27.342949629,3.25,13.2571210861,-22.8799991608,-4.548408031459999,-44.0,-60.619895935100004,False,-0.4671572258450632,-3.534034349283902,0.0548573916642216,-0.10027896536724487,-0.9549680126101833,-0.2724855859008863,-0.2084853052150379,0.19558848428897788,-0.10414078765753002,-1.0845721114533966,0.10062273578199044,7.522273766508689,17.5090169318793,19.28716099094439,0.0,424.722787142534,-0.3040492289819352
2018-07-21 00:58:27.381023407,3.0199999809299998,13.2571210861,-23.4399986267,-4.548408031459999,-44.0,-60.619895935100004,False,-0.4702467672752567,-3.5319566848639767,0.062391510518142776,-0.09679071763015727,-0.9543192435204945,-0.2751660803312879,-0.19941941982990402,0.18844548658178514,-0.08795060322130945,-1.0871360934044234,0.18138816723933637,7.604321188941547,17.467093169384675,19.24016487657409,0.0,424.6757274460442,-0.6001427520135489
2018-07-21 00:58:27.422960281,3.0199999809299998,13.2571210861,-23.4499988556,-4.548408031459999,-44.0,-60.619895935100004,False,-0.47333630870545024,-3.529879020444052,0.06990865432145733,-0.09411911937225213,-0.9530506916717417,-0.278702129176263,-0.1865767014004929,0.18506324446629857,-0.08560591745428316,-1.098995478199052,0.21219080841232235,7.5602997103080565,17.453066640539333,19.21556191650474,0.0,424.58719783213746,-0.8800722580952818
2018-07-21 00:58:27.494145393,2.8899998664899997,8.4305562973,-23.920000076300003,-10.3344898224,-44.0,-58.4214096069,False,-0.47642585013564376,-3.527801356024127,0.07740531489703988,-0.09243294481922718,-0.9510342686270518,-0.28327054701482346,-0.1691766044309872,0.1862189807648041,-0.09996813341475136,-1.1220713157582938,0.18270501597551358,7.364155091054502,17.472702773630804,19.217980029291862,0.0,424.4486278512141,-1.1404971837241575
2018-07-21 00:58:27.514893055,2.8899998664899997,8.4305562973,-23.920000076300003,-10.3344898224,-44.0,-58.4214096069,False,-0.4789424127747662,-3.525399245853554,0.08490197547262243,-0.09074677026620222,-0.9490178455823618,-0.2878389648533839,-0.15177650746148152,0.18737471706330963,-0.11433034937521958,-1.1451471533175355,0.15321922353870482,7.168010471800947,17.492338906722274,19.220398142078988,0.0,424.3100578702907,-1.4009221093530333
2018-07-21 00:58:27.583431244,2.8099999427799998,8.4305562973,-24.2699985504,-10.3344898224,-44.0,-58.4214096069,False,-0.48127441013022626,-3.5228926267152247,0.09239863604820497,-0.08906059571317726,-0.9470014225376717,-0.29240738269194433,-0.13437641049197582,0.18853045336181518,-0.1286925653356878,-1.1682229908767772,0.12373343110189608,6.971865852547393,17.511975039813745,19.222816254866114,0.0,424.1714878893673,-1.661347034981909
2018-07-21 00:58:27.640289307,2.79999995232,8.4305562973,-24.2699985504,-10.3344898224,-44.0,-58.4214096069,False,-0.4836064074856864,-3.520386007576896,0.09989529662378752,-0.08737442116015229,-0.9449849994929818,-0.29697580053050476,-0.11697631352247014,0.1896861896603207,-0.143054781296156,-1.191298828436019,0.09424763866508731,6.775721233293838,17.53161117290521,19.22523436765324,0.0,424.03291790844395,-1.9217719606107848
2018-07-21 00:58:27.683444738,2.83999991417,8.4305562973,-24.529998779299998,-10.3344898224,-44.0,-58.4214096069,False,-0.4859384048411465,-3.5178793884385664,0.10739195719937007,-0.08568824660712733,-0.9429685764482918,-0.3015442183690652,-0.09957621655296443,0.19084192595882624,-0.15741699725662422,-1.2143746659952608,0.06476184622827855,6.579576614040284,17.551247305996682,19.227652480440366,0.0,423.8943479275206,-2.1821968862396606
2018-07-21 00:58:27.744039059,2.82999992371,8.4305562973,-24.529998779299998,-10.3344898224,-44.0,-58.4214096069,False,-0.4882704021966066,-3.515372769300237,0.11488861777495263,-0.08400207205410237,-0.9409521534036018,-0.30611263620762563,-0.08217611958345875,0.19199766225733178,-0.1717792132170924,-1.2374505035545025,0.03527605379146981,6.383431994786729,17.570883439088153,19.230070593227488,0.0,423.7557779465972,-2.4426218118685363
2018-07-21 00:58:27.813502789,2.79999995232,8.4305562973,-24.6000003815,-10.3344898224,-44.0,-58.4214096069,False,-0.49060239955206675,-3.5128661501619076,0.12238527835053517,-0.08231589750107741,-0.9389357303589119,-0.31068105404618607,-0.06477602261395304,0.1931533985558373,-0.18614142917756063,-1.2605263411137442,0.0057902613546610415,6.187287375533175,17.59051957217962,19.232488706014614,0.0,423.6172079656738,-2.703046737497412
2018-07-21 00:58:27.864161730,2.75999999046,8.4305562973,-24.5499992371,-10.3344898224,-44.0,-58.4214096069,False,-0.49293439690752683,-3.5103595310235782,0.1262850801396509,-0.08157303795619819,-0.9377449877251193,-0.312983084872707,-0.06823760800143587,0.18331705551085567,-0.16960948236764645,-1.262997369036335,-0.041209619273301155,6.336273317693523,17.599510072384913,19.24821225688389,0.0,423.4555256921809,-2.7594765366321723
2018-07-21 00:58:27.899042368,2.75,8.4305562973,-24.5499992371,-10.3344898224,-44.0,-58.4214096069,False,-0.49526639426298696,-3.507852911885249,0.12930595027041944,-0.08106068771782074,-0.9367560091015082,-0.3147312993241055,-0.07679697291224291,0.170794678039834,-0.14552821006872912,-1.2604333870853082,-0.09248925829383842,6.569595675236967,17.60589919613306,19.26718713660782,0.0,423.28819567802253,-2.7660579026010783
2018-07-21 00:58:27.932202101,2.75,8.4305562973,-24.5499992371,-10.3344898224,-44.0,-58.4214096069,False,-0.49759839161844704,-3.5053462927469194,0.132326820401188,-0.08054833747944329,-0.9357670304778972,-0.316479513775504,-0.08535633782304994,0.1582723005688123,-0.1214469377698118,-1.2578694051342811,-0.14376889731437567,6.802918032780411,17.612288319881202,19.286162016331755,0.0,423.12086566386415,-2.7726392685699843
2018-07-21 00:58:27.965676546,2.75,4.58817625046,-24.469999313400002,-16.4739627838,-44.0,-53.9340782166,False,-0.49950323522323026,-3.5025119234259203,0.13534769053195658,-0.08003598724106584,-0.9347780518542863,-0.3182277282269025,-0.09391570273385696,0.1457499230977906,-0.09736566547089448,-1.2553054231832543,-0.1950485363349129,7.036240390323855,17.618677443629345,19.30513689605569,0.0,422.95353564970577,-2.7792206345388903
2018-07-21 00:58:28.027393818,2.75,4.58817625046,-24.469999313400002,-16.4739627838,-44.0,-53.9340782166,False,-0.5010573035625568,-3.49940840825955,0.13836856066272513,-0.07952363700268839,-0.9337890732306753,-0.319975942678301,-0.102475067644664,0.13322754562676892,-0.07328439317197716,-1.2527414412322275,-0.24632817535545015,7.269562747867299,17.62506656737749,19.32411177577962,0.0,422.7862056355474,-2.7858020005077964
2018-07-21 00:58:28.079555273,2.72000002861,4.58817625046,-24.340000152600002,-16.4739627838,-44.0,-53.9340782166,False,-0.5026113719018835,-3.4963048930931797,0.1413894307934937,-0.07901128676431093,-0.9328000946070643,-0.3217241571296995,-0.11103443255547105,0.12070516815574724,-0.049203120873059836,-1.2501774592812007,-0.2976078143759874,7.502885105410743,17.631455691125634,19.343086655503555,0.0,422.61887562138907,-2.7923833664767024
2018-07-21 00:58:28.134070158,2.72000002861,4.58817625046,-24.340000152600002,-16.4739627838,-44.0,-53.9340782166,False,-0.5041654402412101,-3.493201377926809,0.14441030092426227,-0.07849893652593348,-0.9318111159834533,-0.323472371581098,-0.11959379746627807,0.10818279068472554,-0.025121848574142513,-1.2476134773301737,-0.3488874533965246,7.736207462954187,17.637844814873777,19.36206153522749,0.0,422.4515456072307,-2.7989647324456084
2018-07-21 00:58:28.184136391,2.59999990463,4.58817625046,-24.1899986267,-16.4739627838,-44.0,-53.9340782166,False,-0.5057195085805367,-3.4900978627604387,0.1471732146149218,-0.07812114334109159,-0.9310225576867013,-0.32469777781031633,-0.1234945884167422,0.09647847232250352,-0.0027651303200582626,-1.2452470226895735,-0.3847599622037913,7.9416784697274885,17.65161183884159,19.385384889606634,0.0,422.28320811524407,-2.852651852570523
2018-07-21 00:58:28.204673052,2.59999990463,4.58817625046,-24.1899986267,-16.4739627838,-44.0,-53.9340782166,False,-0.5072735769198634,-3.486994347594068,0.1485198968696888,-0.07848209476389581,-0.9313343462825087,-0.3230528643883499,-0.10181889487905008,0.08926545887133835,0.010123448080040884,-1.24396503171406,-0.336044305134281,7.994240099723539,17.705884981662482,19.432582222484992,0.0,422.109339372436,-3.1649587994342983
2018-07-21 00:58:28.292611122,2.50999999046,4.58817625046,-24.029998779299998,-16.4739627838,-44.0,-53.9340782166,False,-0.50882764525919,-3.4838908324276976,0.14986657912445578,-0.07884304618670004,-0.9316461348783159,-0.32140795096638347,-0.08014320134135794,0.0820524454201732,0.02301202648014003,-1.2426830407385465,-0.28732864806477076,8.04680172971959,17.760158124483375,19.47977955536335,0.0,421.93547062962796,-3.4772657462980736
2018-07-21 00:58:28.323494911,2.50999999046,3.02029657364,-24.029998779299998,-18.9278755188,-44.0,-52.0210990906,False,-0.5103817135985167,-3.4807873172613273,0.15121326137922275,-0.07920399760950426,-0.9319579234741232,-0.31976303754441704,-0.058467507803665816,0.07483943196900804,0.035900604880239176,-1.2414010497630332,-0.23861299099526054,8.09936335971564,17.81443126730427,19.526976888241705,0.0,421.7616018868199,-3.789572693161849
2018-07-21 00:58:28.417677164,2.4400000572200002,3.02029657364,-23.8500003815,-18.9278755188,-44.0,-52.0210990906,False,-0.5119357819378433,-3.4776838020949565,0.15255994363398973,-0.0795649490323085,-0.9322697120699305,-0.3181181241224506,-0.03679181426597368,0.06762641851784287,0.04878918328033832,-1.2401190587875197,-0.1898973339257503,8.151924989711691,17.86870441012516,19.574174221120064,0.0,421.58773314401185,-4.101879640025624
2018-07-21 00:58:28.439593554,2.4400000572200002,3.02029657364,-23.8500003815,-18.9278755188,-44.0,-52.0210990906,False,-0.5136795229010301,-3.474192797628973,0.15390662588875673,-0.07992590045511272,-0.9325815006657378,-0.3164732107004842,-0.015116120728281557,0.060413405066677715,0.06167776168043747,-1.2388370678120062,-0.14118167685624006,8.20448661970774,17.92297755294605,19.62137155399842,0.0,421.4138644012038,-4.4141865868894
2018-07-21 00:58:28.494359255,2.41999983788,3.02029657364,-23.5,-18.9278755188,-44.0,-52.0210990906,False,-0.5157884845548413,-3.469955670149905,0.1552533081435237,-0.08028685187791695,-0.932893289261545,-0.31482829727851774,0.00655957280941058,0.05320039161551256,0.07456634008053661,-1.237555076836493,-0.0924660197867298,8.257048249703791,17.977250695766944,19.668568886876777,0.0,421.23999565839574,-4.726493533753175
2018-07-21 00:58:28.525866508,2.41999983788,3.02029657364,-23.5,-18.9278755188,-44.0,-52.0210990906,False,-0.5178974462086525,-3.465718542670837,0.15659999039829067,-0.08064780330072117,-0.9332050778573523,-0.3131833838565513,0.028235266347102717,0.0459873781643474,0.08745491848063576,-1.2362730858609794,-0.043750362717219604,8.309609879699842,18.031523838587837,19.715766219755135,0.0,421.0661269155877,-5.038800480616951
2018-07-21 00:58:28.618588209,2.49000000954,3.02029657364,-23.1999988556,-18.9278755188,-44.0,-52.0210990906,False,-0.5200064078624638,-3.461481415191769,0.15782131523175869,-0.08075748317745088,-0.9332122021673661,-0.3125388178617472,0.04940704035755311,0.038862366192470466,0.0840889471104565,-1.2427527562598735,-0.035136622748815155,8.381575663131912,18.10252356036892,19.78425820444696,0.0,420.8230054233993,-5.2617175494309
2018-07-21 00:58:28.666667223,2.67999982834,3.21324634552,-22.9300003052,-20.1249809265,-44.0,-53.5625419617,False,-0.5221153695162749,-3.457244287712701,0.15891953457365166,-0.08062040536821517,-0.9329201352027086,-0.3128766289810426,0.07008394728735898,0.031823774834984365,0.06476042387006375,-1.2568546569905212,-0.06590440616113742,8.472597022393366,18.18994938364384,19.873662302296918,0.0,420.5118752431967,-5.396850546387535
2018-07-21 00:58:28.722516537,2.67999982834,3.21324634552,-22.9300003052,-20.1249809265,-44.0,-53.5625419617,False,-0.5242243311700862,-3.4530071602336334,0.16001775391554462,-0.08048332755897947,-0.932628068238051,-0.31321444010033805,0.09076085421716484,0.024785183477498272,0.04543190062967099,-1.270956557721169,-0.09667218957345969,8.563618381654818,18.27737520691876,19.96306640014688,0.0,420.2007450629941,-5.53198354334417
2018-07-21 00:58:28.769070387,2.86999988556,3.21324634552,-22.539999008200002,-20.1249809265,-44.0,-53.5625419617,False,-0.5263332928238974,-3.4487700327545654,0.1611159732574376,-0.08034624974974376,-0.9323360012733933,-0.3135522512196335,0.11143776114697071,0.01774659212001218,0.02610337738927823,-1.2850584584518168,-0.12743997298578194,8.654639740916272,18.364801030193682,20.05247049799684,0.0,419.8896148827915,-5.667116540300805
2018-07-21 00:58:28.820429087,2.86999988556,3.21324634552,-22.539999008200002,-20.1249809265,-44.0,-53.5625419617,False,-0.5284422544777085,-3.4445329052754974,0.16221419259933056,-0.08020917194050806,-0.9320439343087358,-0.3138900623389289,0.1321146680767766,0.010708000762526086,0.006774854148885484,-1.2991603591824645,-0.1582077563981042,8.745661100177726,18.452226853468602,20.1418745958468,0.0,419.57848470258887,-5.80224953725744
2018-07-21 00:58:28.859971285,3.06999993324,3.21324634552,-22.079999923699997,-20.1249809265,-44.0,-53.5625419617,False,-0.5305512161315198,-3.4402957777964294,0.16331241194122353,-0.08007209413127236,-0.9317518673440782,-0.31422787345822434,0.15279157500658247,0.003669409405039986,-0.012553669091507277,-1.313262259913112,-0.18897553981042647,8.836682459439178,18.539652676743522,20.231278693696762,0.0,419.26735452238626,-5.937382534214075
2018-07-21 00:58:28.900109291,3.06999993324,3.21324634552,-22.079999923699997,-20.1249809265,-44.0,-53.5625419617,False,-0.5325040262090364,-3.4363498383627324,0.1644106312831165,-0.07993501632203666,-0.9314598003794206,-0.31456568457751977,0.17346848193638834,-0.003369181952446107,-0.03188219233190004,-1.3273641606437598,-0.21974332322274873,8.927703818700632,18.627078500018442,20.320682791546723,0.0,418.95622434218365,-6.07251553117071
2018-07-21 00:58:28.956119299,3.25,3.21324634552,-21.5699996948,-20.1249809265,-44.0,-53.5625419617,False,-0.5334524018228199,-3.4342769463560185,0.16550885062500947,-0.07979793851280095,-0.931167733414763,-0.31490349569681514,0.1941453888661942,-0.0104077733099322,-0.051210715572292786,-1.3414660613744076,-0.250511106635071,9.018725177962086,18.71450432329336,20.410086889396684,0.0,418.64509416198104,-6.207648528127345
2018-07-21 00:58:29.021378040,3.25,3.21324634552,-21.5699996948,-20.1249809265,-44.0,-53.5625419617,False,-0.5344007774366035,-3.4322040543493046,0.16425671536668562,-0.08443441367927534,-0.9307014245313957,-0.3154268042406627,0.19009414337606834,-0.004635295290666769,-0.0331924805700744,-1.3369345524881517,-0.2670298121050553,9.114130868898105,18.74384669970991,20.490016916152726,0.0,418.42226272515717,-6.096127801029222
2018-07-21 00:58:29.086138725,3.33999991417,3.21324634552,-21.1800003052,-20.1249809265,-44.0,-53.5625419617,False,-0.5353491530503871,-3.4301311623425907,0.16260593339171722,-0.08988053740700094,-0.9302055622483887,-0.3159815752452117,0.18184872362390442,0.003310084955044222,-0.00883981307440937,-1.329242606635071,-0.281131712835703,9.210280192061612,18.76333746676532,20.568340033323935,0.0,418.21440775364135,-5.942771813314036
2018-07-21 00:58:29.124838591,3.33999991417,2.7148201465599997,-21.1800003052,-21.0245628357,-44.0,-53.1277160645,False,-0.5362975286641707,-3.4280582703358764,0.16095515141674882,-0.09532666113472654,-0.9297096999653816,-0.3165363462497607,0.17360330387174053,0.011255465200755212,0.015512854421255669,-1.3215506607819907,-0.2952336135663507,9.306429515225119,18.782828233820734,20.646663150495144,0.0,418.0065527821256,-5.789415825598851
2018-07-21 00:58:29.177938461,3.29999995232,2.7148201465599997,-20.9099998474,-21.0245628357,-44.0,-53.1277160645,False,-0.5372459042779543,-3.4259853783291625,0.15930436944178042,-0.10077278486245214,-0.9292138376823744,-0.3170911172543096,0.1653578841195766,0.0192008454464662,0.039865521916920714,-1.31385871492891,-0.3093355142969984,9.402578838388626,18.802319000876142,20.724986267666353,0.0,417.7986978106098,-5.636059837883664
2018-07-21 00:58:29.211318493,3.29999995232,2.7148201465599997,-20.9099998474,-21.0245628357,-44.0,-53.1277160645,False,-0.5381942798917377,-3.4239124863224486,0.15765358746681202,-0.10621890859017774,-0.9287179753993673,-0.3176458882588586,0.15711246436741272,0.027146225692177187,0.06421818941258575,-1.3061667690758294,-0.3234374150276461,9.498728161552133,18.821809767931555,20.80330938483756,0.0,417.590842839094,-5.482703850168479
2018-07-21 00:58:29.286393404,3.0199999809299998,2.7148201465599997,-20.609998703,-21.0245628357,-44.0,-53.1277160645,False,-0.5391426555055213,-3.4218395943157347,0.1560028054918436,-0.11166503231790334,-0.9282221131163603,-0.31820065926340757,0.1488670446152488,0.03509160593788818,0.08857085690825078,-1.2984748232227488,-0.3375393157582939,9.59487748471564,18.841300534986967,20.88163250200877,0.0,417.3829878675782,-5.329347862453293
2018-07-21 00:58:29.316092253,3.0199999809299998,2.7148201465599997,-20.609998703,-21.0245628357,-44.0,-53.1277160645,False,-0.5400910311193049,-3.419766702309021,0.1543520235168752,-0.11711115604562894,-0.9277262508333531,-0.31875543026795655,0.14062162486308488,0.04303698618359917,0.11292352440391584,-1.2907828773696683,-0.3516412164889416,9.691026807879147,18.860791302042376,20.95995561917998,0.0,417.17513289606245,-5.1759918747381075
2018-07-21 00:58:29.359374523,2.50999999046,2.7148201465599997,-20.4399986267,-21.0245628357,-44.0,-53.1277160645,False,-0.5410394067330885,-3.417693810302307,0.1527152157405624,-0.12131616706085149,-0.9277138999615925,-0.31821861787629063,0.12458704209492234,0.04664444226012647,0.13168292695039652,-1.2902019146919435,-0.3465171256714055,9.755308391627173,18.889354440666352,21.04476956126414,0.0,416.9439131267757,-5.084776056512907
2018-07-21 00:58:29.411501408,2.50999999046,7.860982418060001,-20.4399986267,-21.1839828491,-44.0,-53.484375,False,-0.5420774751489337,-3.4166724425648463,0.15113245523257937,-0.12072099214389335,-0.9295716005774467,-0.3134599461727938,0.07842672589723673,0.03347433868231155,0.1288095547669443,-1.3171237251777252,-0.26703368518957304,9.696336806753555,18.95300631050403,21.15468772323223,0.0,416.62232656611025,-5.233896482050439
2018-07-21 00:58:29.455819845,1.93999993801,7.860982418060001,-19.9300003052,-21.1839828491,-44.0,-53.484375,False,-0.5431225782943523,-3.4157335473190917,0.14954969472459637,-0.12012581722693523,-0.931429301193301,-0.30870127446929696,0.03226640969955115,0.020304235104496627,0.1259361825834921,-1.3440455356635073,-0.18755024470774054,9.637365221879937,19.016658180341707,21.264605885200318,0.0,416.3007400054447,-5.383016907587971
2018-07-21 00:58:29.508376598,1.93999993801,7.860982418060001,-19.9300003052,-21.1839828491,-44.0,-53.484375,False,-0.5441676814397709,-3.414794652073337,0.14796693421661333,-0.11953064230997709,-0.9332870018091552,-0.30394260276580015,-0.013893906498134462,0.007134131526681707,0.12306281040003988,-1.3709673461492893,-0.10806680422590803,9.57839363700632,19.080310050179385,21.374524047168407,0.0,415.97915344477923,-5.532137333125502
2018-07-21 00:58:29.581576347,1.42999994755,7.860982418060001,-19.0100002289,-21.1839828491,-44.0,-53.484375,False,-0.5452127845851895,-3.413855756827583,0.14638417370863033,-0.11893546739301895,-0.9351447024250095,-0.2991839310623033,-0.06005422269582006,-0.006035972051133216,0.12018943821658767,-1.3978891566350713,-0.02858336374407555,9.519422052132702,19.143961920017063,21.484442209136496,0.0,415.65756688411375,-5.681257758663033
2018-07-21 00:58:29.644245386,1.42999994755,7.860982418060001,-19.0100002289,-21.1839828491,-44.0,-53.484375,False,-0.5462578877306082,-3.4129168615818286,0.14480141320064732,-0.11834029247606083,-0.9370024030408638,-0.2944252593588065,-0.10621453889350566,-0.01920607562894814,0.11731606603313546,-1.424810967120853,0.05090007673775693,9.460450467259085,19.20761378985474,21.594360371104585,0.0,415.33598032344827,-5.8303781842005655
2018-07-21 00:58:29.703424931,1.0,7.860982418060001,-18.109998703,-21.1839828491,-44.0,-53.484375,False,-0.5473029908760269,-3.411977966336074,0.1432186526926643,-0.11774511755910269,-0.938860103656718,-0.2896665876553096,-0.15237485509119122,-0.03237617920676306,0.11444269384968325,-1.451732777606635,0.1303835172195894,9.401478882385467,19.271265659692418,21.70427853307267,0.0,415.0143937627828,-5.979498609738097
2018-07-21 00:58:29.780238390,0.629999995232,7.860982418060001,-17.1399993896,-21.1839828491,-44.0,-53.484375,False,-0.5483480940214455,-3.4110390710903196,0.14163589218468128,-0.11714994264214457,-0.9407178042725722,-0.2849079159518128,-0.19853517128887685,-0.045546282784577986,0.11156932166623104,-1.4786545880924171,0.20986695770142189,9.34250729751185,19.334917529530095,21.81419669504076,0.0,414.6928072021173,-6.128619035275628
2018-07-21 00:58:29.824865341,0.6399999856949999,7.860982418060001,-17.1399993896,-21.1839828491,-44.0,-53.484375,False,-0.5493931971668641,-3.410100175844565,0.1411950044329605,-0.11228609068885466,-0.9418096195353206,-0.2831554932726193,-0.22059151490241705,-0.051363042727869346,0.08959965590332224,-1.4927487426540285,0.21737299549763028,9.487352912322276,19.386456699010427,21.910967734899845,0.0,414.35087317883887,-6.170178414146367
2018-07-21 00:58:29.872390985,0.359999984503,8.55795860291,-16.2600002289,-19.3597297668,-44.0,-58.0268630981,False,-0.5504383003122827,-3.409161280598811,0.1416663737202101,-0.10401193697284321,-0.9422895589996638,-0.2838048021508855,-0.22339088041884123,-0.051305120528362044,0.052373712117695474,-1.4965947155805688,0.16737534745260663,9.795030746445498,19.42831887418353,21.99723536742184,0.0,413.99268330227727,-6.1258058698648306
2018-07-21 00:58:29.926951170,0.359999984503,8.55795860291,-16.2600002289,-19.3597297668,-44.0,-58.0268630981,False,-0.5513924234518459,-3.4091079707310423,0.1421377430074597,-0.09573778325683176,-0.942769498464007,-0.2844541110291517,-0.22619024593526538,-0.051247198328854736,0.015147768332068712,-1.500440688507109,0.11737769940758294,10.10270858056872,19.470181049356636,22.08350299994384,0.0,413.6344934257157,-6.081433325583294
2018-07-21 00:58:30.012857676,0.199999988079,8.55795860291,-15.4799995422,-19.3597297668,-44.0,-58.0268630981,False,-0.5523111654780208,-3.4093990551769346,0.14260911229470932,-0.0874636295408203,-0.9432494379283503,-0.2851034199074179,-0.22898961145168956,-0.05118927612934743,-0.022078175453558058,-1.5042866614336494,0.06738005136255928,10.410386414691944,19.51204322452974,22.169770632465838,0.0,413.276303549154,-6.037060781301758
2018-07-21 00:58:30.052215815,0.199999988079,8.55795860291,-15.4799995422,-19.3597297668,-44.0,-58.0268630981,False,-0.5532299075041959,-3.4096901396228274,0.14308048158195893,-0.07918947582480886,-0.9437293773926935,-0.2857527287856841,-0.2317889769681137,-0.051131353929840126,-0.05930411923918483,-1.5081326343601897,0.017382403317535627,10.718064248815166,19.553905399702845,22.256038264987836,0.0,412.9181136725924,-5.9926882370202215
2018-07-21 00:58:30.106545687,0.239999994636,8.55795860291,-14.739999771099999,-19.3597297668,-44.0,-58.0268630981,False,-0.5541486495303708,-3.40998122406872,0.14355185086920852,-0.0709153221087974,-0.9442093168570367,-0.2864020376639502,-0.2345883424845379,-0.05107343173033282,-0.09653006302481157,-1.5119786072867298,-0.03261524472748803,11.025742082938388,19.59576757487595,22.34230589750983,0.0,412.55992379603083,-5.948315692738685
2018-07-21 00:58:30.158314705,0.34999999404,8.55795860291,-13.9099998474,-19.3597297668,-44.0,-58.0268630981,False,-0.5550673915565457,-3.4102723085146125,0.14402322015645813,-0.06264116839278595,-0.9446892563213799,-0.2870513465422164,-0.23738770800096207,-0.05101550953082551,-0.13375600681043834,-1.5158245802132702,-0.08261289277251169,11.333419917061612,19.637629750049054,22.42857353003183,0.0,412.2017339194692,-5.903943148457149
2018-07-21 00:58:30.254972935,0.34999999404,8.55795860291,-13.9099998474,-19.3597297668,-44.0,-58.0268630981,False,-0.5559861335827208,-3.4105633929605053,0.14449458944370774,-0.0543670146767745,-0.9451691957857231,-0.2877006554204826,-0.24018707351738622,-0.05095758733131821,-0.17098195059606508,-1.5196705531398105,-0.1326105408175354,11.641097751184834,19.67949192522216,22.51484116255383,0.0,411.8435440429076,-5.859570604175612
2018-07-21 00:58:30.287776232,0.5,8.55795860291,-13.1599998474,-19.3597297668,-44.0,-58.0268630981,False,-0.5569048756088957,-3.4108544774063976,0.14263394906069668,-0.052489391042255924,-0.9450273417106114,-0.2894250396791991,-0.19694753068843132,-0.059153677410116574,-0.15205501035415642,-1.5328119289099527,-0.11289266753554507,11.62227456042654,19.79169413490948,22.570567714080568,0.0,411.6109462940711,-5.931582202277962
2018-07-21 00:58:30.318465710,0.5,8.55795860291,-13.1599998474,-19.3597297668,-44.0,-58.0268630981,False,-0.5578236176350707,-3.4111455618522903,0.14053233434509202,-0.05127274218282496,-0.9448212356364226,-0.291260515060562,-0.14895063399712044,-0.06820268209100655,-0.1273256054294023,-1.5469138296406004,-0.08597085704976304,11.569712930430489,19.911164814829938,22.623138353904462,0.0,411.39132639843285,-6.015620161759981
2018-07-21 00:58:30.358109474,0.699999988079,1.09027290344,-12.3199996948,-17.703039169300002,-44.0,-56.305046081499995,False,-0.5587423596612456,-3.4114366462981827,0.13843071962948736,-0.050056093323393995,-0.9446151295622338,-0.29309599044192497,-0.10095373730580956,-0.07725168677189653,-0.10259620050464816,-1.5610157303712482,-0.05904904656398101,11.51715130043444,20.030635494750396,22.675708993728357,0.0,411.1717065027946,-6.0996581212419985
2018-07-21 00:58:30.412908554,0.699999988079,1.09027290344,-12.3199996948,-17.703039169300002,-44.0,-56.305046081499995,False,-0.5598668680522831,-3.4110778497858054,0.1363291049138827,-0.04883944446396303,-0.944409023488045,-0.29493146582328794,-0.05295684061449865,-0.08630069145278652,-0.07786679557989401,-1.5751176311018957,-0.03212723607819898,11.46458967043839,20.150106174670853,22.72827963355225,0.0,410.9520866071564,-6.183696080724017
2018-07-21 00:58:30.447877169,0.699999988079,1.09027290344,-12.3199996948,-17.703039169300002,-44.0,-56.305046081499995,False,-0.5611869274567362,-3.410101435908831,0.13422749019827804,-0.047622795604532066,-0.9442029174138562,-0.29676694120465086,-0.004959943923187771,-0.0953496961336765,-0.05313739065513988,-1.5892195318325435,-0.005205425592416962,11.412028040442339,20.26957685459131,22.780850273376146,0.0,410.7324667115182,-6.267734040206035
2018-07-21 00:58:30.505635737,0.8399999737739999,1.09027290344,-11.4799995422,-17.703039169300002,-44.0,-56.305046081499995,False,-0.5625069868611892,-3.409125022031856,0.13212587548267338,-0.0464061467451011,-0.9439968113396674,-0.29860241658601383,0.04303695276812311,-0.10439870081456648,-0.02840798573038575,-1.6033214325631913,0.02171638489336508,11.359466410446288,20.38904753451177,22.83342091320004,0.0,410.51284681588,-6.351771999688053
2018-07-21 00:58:30.542647839,0.8499999642370001,1.09027290344,-11.489999771099999,-17.703039169300002,-44.0,-56.305046081499995,False,-0.5638270462656422,-3.4081486081548813,0.13002426076706872,-0.04518949788567014,-0.9437907052654786,-0.3004378919673768,0.09103384945943402,-0.11344770549545646,-0.003678580805631604,-1.617423333293839,0.0486381953791471,11.306904780450237,20.50851821443223,22.885991553023935,0.0,410.29322692024175,-6.435809959170071
2018-07-21 00:58:30.603898525,0.979999959469,1.09027290344,-10.5500001907,-17.703039169300002,-44.0,-56.305046081499995,False,-0.5651471056700952,-3.4071721942779067,0.12728641210248143,-0.04416161179427768,-0.9438531253363274,-0.3015727086553017,0.11359572341166238,-0.12238034404689382,0.017260801071755327,-1.6229657172393364,0.06502521597551333,11.351460744747238,20.620061371138625,22.935804025101778,0.0,410.0642063570502,-6.477856053751417
2018-07-21 00:58:30.670781612,1.1399999856899998,1.09027290344,-9.64999961853,-17.703039169300002,-44.0,-56.305046081499995,False,-0.5664671650745482,-3.406195780400932,0.1227072275384856,-0.04368002736097314,-0.9446926916622259,-0.3006797366539826,0.06254564920137251,-0.13097620532956247,0.02723141036499754,-1.603735852606635,0.050923315244865625,11.677086452527648,20.708661343013745,22.977634035232228,0.0,409.80797915599845,-6.398372751090821
2018-07-21 00:58:30.695647717,1.1399999856899998,0.359219431877,-9.64999961853,-15.6151533127,-44.0,-54.577758789099995,False,-0.5677872244790012,-3.405219366523957,0.1181280429744898,-0.0431984429276686,-0.9455322579881243,-0.2997867646526635,0.011495574991082641,-0.1395720666122311,0.03720201965823976,-1.5845059879739336,0.03682141451421793,12.002712160308059,20.797261314888864,23.019464045362678,0.0,409.5517519549467,-6.318889448430224
2018-07-21 00:58:30.763936758,1.20999991894,0.359219431877,-8.86999988556,-15.6151533127,-44.0,-54.577758789099995,False,-0.5691072838834542,-3.4042429526469826,0.11354885841049397,-0.04271685849436406,-0.9463718243140229,-0.29889379265134436,-0.03955449921920723,-0.14816792789489974,0.04717262895148197,-1.565276123341232,0.022719513783570226,12.32833786808847,20.885861286763983,23.06129405549313,0.0,409.29552475389494,-6.239406145769628
2018-07-21 00:58:30.798117399,1.20999991894,0.359219431877,-8.86999988556,-15.6151533127,-44.0,-54.577758789099995,False,-0.5704273432879072,-3.403266538770008,0.10896967384649817,-0.042235274061059515,-0.9472113906399213,-0.29800082065002526,-0.09060457342949707,-0.1567637891775684,0.057143238244724184,-1.5460462587085306,0.008617613052922524,12.65396357586888,20.9744612586391,23.10312406562358,0.0,409.0392975528432,-6.159922843109032
2018-07-21 00:58:30.874892473,2.02999997139,0.359219431877,-8.07999992371,-15.6151533127,-44.0,-54.577758789099995,False,-0.5722020741668341,-3.402003846575782,0.10439048928250236,-0.04175368962775497,-0.9480509569658199,-0.29710784864870615,-0.14165464763978697,-0.165359650460237,0.0671138475379664,-1.5268163940758293,-0.005484287677725172,12.97958928364929,21.06306123051422,23.14495407575403,0.0,408.7830703517915,-6.0804395404484355
2018-07-21 00:58:30.938943148,2.03999996185,0.359219431877,-8.07999992371,-15.6151533127,-44.0,-54.577758789099995,False,-0.5750106413746244,-3.4000902120173304,0.09981130471850655,-0.04127210519445043,-0.9488905232917184,-0.29621487664738705,-0.1927047218500768,-0.17395551174290566,0.07708445683120863,-1.5075865294431279,-0.01958618840837288,13.3052149914297,21.151661202389338,23.18678408588448,0.0,408.52684315073975,-6.00095623778784
2018-07-21 00:58:30.975500584,2.6900000572200002,0.359219431877,-7.17999982834,-15.6151533127,-44.0,-54.577758789099995,False,-0.5778192085824146,-3.3981765774588784,0.09523212015451074,-0.04079052076114589,-0.9497300896176168,-0.29532190464606795,-0.24375479606036665,-0.18255137302557428,0.08705506612445083,-1.4883566648104265,-0.03368808913902058,13.630840699210111,21.240261174264457,23.22861409601493,0.0,408.27061594968796,-5.921472935127243
2018-07-21 00:58:31.047913790,2.6900000572200002,0.359219431877,-7.17999982834,-15.6151533127,-44.0,-54.577758789099995,False,-0.580627775790205,-3.3962629429004267,0.09052075303399146,-0.03940506146360141,-0.9507693211456208,-0.2935049670445687,-0.23738833983862015,-0.18233616814276302,0.0874696246025802,-1.48547508992891,0.016046189158768022,13.659083231516586,21.310762780498933,23.247374405790048,0.0,408.05170169474167,-5.814223411524455
2018-07-21 00:58:31.071754694,2.70000004768,0.359219431877,-6.38999986649,-15.6151533127,-44.0,-54.577758789099995,False,-0.5834363429979952,-3.3943493083419747,0.0857238947077605,-0.037435006482717685,-0.9519376893715039,-0.29109043975141075,-0.1938868141832187,-0.17642226374993997,0.08170365270277598,-1.4931670357819906,0.10706754842022137,13.494988386650867,21.369558976120064,23.251214013842812,0.0,407.8569201910079,-5.689015635570995
2018-07-21 00:58:31.098049641,2.70000004768,1.2885886430700002,-6.38999986649,-11.6239624023,-44.0,-55.634494781499995,False,-0.5862449102057855,-3.392435673783523,0.08092703638152954,-0.03546495150183396,-0.953106057597387,-0.28867591245825275,-0.15038528852781727,-0.1705083593571169,0.07593768080297175,-1.500858981635071,0.1980889076816747,13.33089354178515,21.428355171741195,23.255053621895577,0.0,407.6621386872741,-5.563807859617535
2018-07-21 00:58:31.154869318,3.37999987602,1.2885886430700002,-5.829999923709999,-11.6239624023,-43.0,-55.634494781499995,False,-0.5890534774135758,-3.3905220392250714,0.07613017805529858,-0.03349489652095023,-0.9542744258232702,-0.2862613851650948,-0.10688376287241583,-0.16459445496429384,0.07017170890316754,-1.5085509274881517,0.289110266943128,13.16679869691943,21.487151367362323,23.25889322994834,0.0,407.4673571835403,-5.438600083664076
2018-07-21 00:58:31.230848074,3.37999987602,1.2885886430700002,-5.829999923709999,-11.6239624023,-43.0,-55.634494781499995,False,-0.591862044621366,-3.3886084046666194,0.07133331972906762,-0.0315248415400665,-0.9554427940491532,-0.2838468578719368,-0.06338223721701441,-0.1586805505714708,0.06440573700336331,-1.516242873341232,0.3801316262045814,13.002703852053711,21.545947562983454,23.262732838001106,0.0,407.27257567980644,-5.313392307710616
2018-07-21 00:58:31.301508427,3.4299998283399997,1.2885886430700002,-5.17999982834,-11.6239624023,-43.0,-55.634494781499995,False,-0.5946706118291564,-3.3866947701081678,0.06653646140283666,-0.02955478655918278,-0.9566111622750363,-0.28143233057877887,-0.019880711561612974,-0.1527666461786477,0.05863976510355909,-1.5239348191943127,0.4711529854660347,12.838609007187992,21.60474375860458,23.26657244605387,0.0,407.07779417607264,-5.188184531757156
2018-07-21 00:58:31.377242804,7.639999866489999,1.2885886430700002,-4.6199998855599995,-11.6239624023,-41.0,-55.634494781499995,False,-0.5974376936288553,-3.384813460113294,0.06173960307660569,-0.027584731578299052,-0.9577795305009194,-0.27901780328562087,0.023620814093788467,-0.14685274178582466,0.05287379320375487,-1.5316267650473934,0.5621743447274881,12.674514162322275,21.663539954225712,23.270412054106636,0.0,406.88301267233885,-5.062976755803697
2018-07-21 00:58:31.405928135,7.639999866489999,1.2885886430700002,-4.6199998855599995,-11.6239624023,-41.0,-55.634494781499995,False,-0.5998237242727535,-3.3832290572209165,0.05694274475037473,-0.025614676597415325,-0.9589478987268025,-0.2766032759924629,0.06712233974918991,-0.1409388373930016,0.047107821303950644,-1.5393187109004738,0.6531957039889414,12.510419317456556,21.72233614984684,23.2742516621594,0.0,406.68823116860506,-4.937768979850237
2018-07-21 00:58:31.458597898,7.6999998092699995,1.2885886430700002,-4.21999979019,-11.6239624023,-41.0,-55.634494781499995,False,-0.6022097549166516,-3.381644654328539,0.05297622996977884,-0.027010808573155846,-0.959054084851846,-0.27670312727598856,0.08593522418010485,-0.13884819757431716,0.03851889150944554,-1.5433273533767773,0.5747851079186416,12.471556787401264,21.690825482633727,23.23789677988744,0.0,406.58359199770695,-4.603154654094187
2018-07-21 00:58:31.498947382,7.6999998092699995,1.2885886430700002,-4.21999979019,-11.6239624023,-41.0,-55.634494781499995,False,-0.6045957855605497,-3.3800602514361615,0.04904638651296493,-0.028555604957075358,-0.9591133607263791,-0.27691402367015644,0.10365775852539577,-0.1369264085570142,0.02980528849561611,-1.5471733263033174,0.48889171255924196,12.438225022037914,21.655326499711848,23.199766746623222,0.0,406.4829338762085,-4.259292089545592
2018-07-21 00:58:31.569841623,9.72999954224,1.01568984985,-3.90999984741,-7.0621342659,-40.0,-57.8956832886,False,-0.6069818162044478,-3.3784758485437836,0.04511654305615102,-0.03010040134099487,-0.9591726366009122,-0.27712492006432426,0.12138029287068666,-0.1350046195397113,0.021091685481786675,-1.5510192992298577,0.40299831719984236,12.404893256674566,21.619827516789968,23.161636713359005,0.0,406.38227575471007,-3.9154295249969975
2018-07-21 00:58:31.600785255,9.739999771119999,1.01568984985,-3.90999984741,-7.0621342659,-40.0,-57.8956832886,False,-0.609367846848346,-3.376891445651406,0.041186699599337115,-0.031645197724914385,-0.9592319124754455,-0.27733581645849215,0.13910282721597755,-0.13308283052240835,0.012378082467957241,-1.554865272156398,0.3171049218404428,12.371561491311216,21.58432853386809,23.123506680094785,0.0,406.2816176332117,-3.5715669604484033
