time,roll_commanded,roll_measured,pitch_commanded,pitch_measured,yaw_commanded,yaw_measured,label,wind_estimation_linear_x,wind_estimation_linear_y,orientation_x,orientation_y,orientation_z,orientation_w,angular_velocity_x,angular_velocity_y,angular_velocity_z,linear_acceleration_x,linear_acceleration_y,linear_acceleration_z,airspeed,groundspeed,throttle,altitude,climb
2018-09-11 18:24:29.471278906,33.0,-3.14478302002,-3.11999988556,-2.90093278885,110.0,-63.0539550781,False,1.85382822082,0.17801231065,0.020097579246599998,0.0214761704897,-0.9753265956299999,-0.218798750605,0.24995434284200002,-0.05727846175430001,0.0326794497669,0.36284605,0.81395195,11.50320045,0.0,20.2655258179,0.40000000596,419.929992676,-0.406542122364
2018-09-11 18:24:29.528646230,33.0,-2.90670084953,-3.11999988556,-1.70798170567,110.0,-64.6685638428,False,1.8583912740171833,0.17990791927685199,0.01633489303996064,0.000657572389450068,-0.9743191762128937,-0.2177111099198752,0.30448579804795545,-0.042754720068424464,0.03658355212925629,0.2578443599303944,0.7570233228538283,11.105965140580047,0.0,20.23953997798028,0.39354988841301164,419.99062392387003,-0.3057524086150422
2018-09-11 18:24:29.566205978,33.0,-2.90670084953,-3.11999988556,-1.70798170567,110.0,-64.6685638428,False,1.8629543272143667,0.18180352790370394,0.012572206833321279,-0.020161025710799862,-0.9733117567957874,-0.21662346923475037,0.3590172532539109,-0.028230978382548916,0.040487654491612575,0.15284266986078884,0.7000946957076566,10.708729831160092,0.0,20.213554138060555,0.3870997708660232,420.05125517174014,-0.20496269486608445
2018-09-11 18:24:29.602866888,35.1800003052,-2.90670084953,-3.49000000954,-1.70798170567,109.0,-64.6685638428,False,1.86751738041155,0.18369913653055592,0.008809520626681921,-0.040979623811049797,-0.9723043373786812,-0.21553582854962552,0.41354870845986635,-0.01370723669667337,0.04439175685396886,0.04784097979118329,0.643166068561485,10.311494521740139,0.0,20.187568298140835,0.38064965331903483,420.1118864196102,-0.1041729811171267
2018-09-11 18:24:29.622792721,35.1800003052,-2.90670084953,-3.49000000954,-1.70798170567,109.0,-64.6685638428,False,1.8720804336087333,0.1855947451574079,0.0050468344200425615,-0.061798221911299724,-0.9712969179615749,-0.2144481878645007,0.4680801636658218,0.0008165049892021742,0.04829585921632515,-0.05716071027842229,0.5862374414153132,9.914259212320186,0.0,20.161582458221115,0.3741995357720464,420.1725176674803,-0.0033832673681689074
2018-09-11 18:24:29.690781355,36.3899993896,-2.90670084953,-5.7899999618499995,-1.70798170567,-44.0,-64.6685638428,False,1.8766434868059165,0.18749035378425988,0.0012841482134032037,-0.08261682001154966,-0.9702894985444687,-0.2133605471793759,0.5226116188717772,0.015340246675077725,0.05219996157868144,-0.1621624003480278,0.5293088142691416,9.517023902900233,0.0,20.135596618301392,0.367749418225058,420.23314891535034,0.09740644638078888
2018-09-11 18:24:29.750181198,36.3899993896,-2.90670084953,-5.7799997329699995,-1.70798170567,-44.0,-64.6685638428,False,1.8812065400030997,0.18938596241111183,-0.002478537993236156,-0.1034354181117996,-0.9692820791273624,-0.21227290649425107,0.5771430740777327,0.02986398836095327,0.05610406394103772,-0.2671640904176334,0.47238018712296986,9.119788593480278,0.0,20.109610778381672,0.3612993006780696,420.29378016322045,0.1981961601297466
2018-09-11 18:24:29.780525684,36.1199989319,-2.90670084953,-8.02999973297,-1.70798170567,-44.0,-64.6685638428,False,1.8857695932002831,0.1912815710379638,-0.0062412241998755155,-0.12425401621204951,-0.9682746597102562,-0.21118526580912625,0.6316745292836881,0.04438773004682881,0.060008166303394006,-0.372165780487239,0.41545155997679817,8.722553284060325,0.0,20.083624938461952,0.3548491831310812,420.3544114110905,0.29898587387870446
2018-09-11 18:24:29.846016169,36.1100006104,-2.90670084953,-8.010000228880001,-1.70798170567,-44.0,-64.6685638428,False,1.8903326463974663,0.1931771796648158,-0.009010089684545391,-0.1427791345861406,-0.9669047711333968,-0.21062978735328447,0.6534084634860597,0.06187967626237763,0.05308517688523388,-0.4724575481670534,0.39997024986078883,8.344471659025523,0.0,20.047624870341348,0.34487702431691136,420.4115201091267,0.41433128790639623
2018-09-11 18:24:29.887246370,35.6300010681,-2.90670084953,-10.1700000763,-1.70798170567,-44.0,-64.6685638428,False,1.8948956995946498,0.19507278829166774,-0.008768686605568567,-0.15435733610853317,-0.9644369687248213,-0.21168622057744502,0.5757991818949673,0.08836227098084984,0.01336708337826311,-0.558483029187935,0.5100322623433875,8.024406266403712,0.0,19.981291850134017,0.32423665354852527,420.4579590547675,0.5737657071261957
2018-09-11 18:24:29.950139046,35.6300010681,15.948453903199999,-10.1499996185,-2.3676970005,-44.0,-65.7979049683,False,1.8996527057814154,0.196961844895826,-0.00852728352659174,-0.16593553763092575,-0.961969166316246,-0.2127426538016056,0.49818990030387467,0.11484486569932204,-0.02635101012870765,-0.6445085102088167,0.620094274825986,7.704340873781903,0.0,19.914958829926682,0.30359628278013917,420.50439800040834,0.7332001263459953
2018-09-11 18:24:29.974190474,34.9799995422,15.948453903199999,-12.1899995804,-2.3676970005,-44.0,-65.7979049683,False,1.9045048114985568,0.1988476888953086,-0.008285880447614915,-0.17751373915331833,-0.9595013639076705,-0.21379908702576614,0.4205806187127822,0.14132746041779423,-0.06606910363567842,-0.7305339912296984,0.7301562873085846,7.384275481160093,0.0,19.84862580971935,0.28295591201175313,420.55083694604923,0.8926345455657947
2018-09-11 18:24:30.046831131,34.9799995422,15.948453903199999,-12.1599998474,-2.3676970005,-44.0,-65.7979049683,False,1.9093569172156983,0.20073353289479118,-0.008044477368638088,-0.1890919406757109,-0.9570335614990951,-0.21485552024992668,0.3429713371216897,0.16781005513626643,-0.1057871971426492,-0.8165594722505801,0.8402182997911832,7.0642100885382835,0.0,19.78229278951202,0.26231554124336703,420.59727589169006,1.0520689647855943
2018-09-11 18:24:30.081598282,34.090000152600005,15.948453903199999,-14.219999313399999,-2.3676970005,-44.0,-65.7979049683,False,1.91420902293284,0.20261937689427378,-0.007803074289661262,-0.20067014219810347,-0.9545657590905197,-0.21591195347408723,0.26536205553059716,0.19429264985473862,-0.14550529064961995,-0.9025849532714618,0.9502803122737817,6.744144695916473,0.0,19.71595976930469,0.24167517047498097,420.6437148373309,1.2115033840053937
2018-09-11 18:24:30.174286366,33.159999847399995,15.948453903199999,-16.1399993896,-2.3676970005,-44.0,-65.7979049683,False,1.9190611286499815,0.2045052208937564,-0.007561671210684436,-0.21224834372049606,-0.9520979566819443,-0.2169683866982478,0.18775277393950468,0.22077524457321085,-0.18522338415659073,-0.9886104342923434,1.0603423247563803,6.424079303294664,0.0,19.649626749097354,0.2210347997065949,420.6901537829717,1.3709378032251933
2018-09-11 18:24:30.212505341,33.159999847399995,15.948453903199999,-16.1199989319,-2.3676970005,-44.0,-65.7979049683,False,1.923913234367123,0.20639106489323897,-0.00732026813170761,-0.22382654524288864,-0.9496301542733688,-0.21802481992240835,0.11014349234841214,0.24725783929168305,-0.2249414776635615,-1.0746359153132252,1.170404337238979,6.104013910672855,0.0,19.583293728890023,0.2003944289382088,420.73659272861255,1.530372222444993
2018-09-11 18:24:30.293161869,32.1499977112,15.948453903199999,-18.0100002289,-2.3676970005,-44.0,-65.7979049683,False,1.9287653400842646,0.20827690889272157,-0.0037967149931624803,-0.2318760984242,-0.9467873068477763,-0.22214088853688446,0.08273031262473429,0.2572633251095457,-0.24664128181413408,-1.145589644686775,1.154240429675174,5.788344445614849,0.0,19.51793612766617,0.1835962857006967,420.73948885386267,1.589966277231313
2018-09-11 18:24:30.344137907,32.1300010681,15.948453903199999,-18.0,-2.3676970005,-44.0,-65.7979049683,False,1.933617445801406,0.21016275289220418,0.003056555597118615,-0.2363458634334,-0.9435639789701373,-0.22936093508356473,0.10624071450568018,0.2505529033470798,-0.250061661979955,-1.2012531912296984,1.0100212409048723,5.4771346172157775,0.0,19.453568081932808,0.17069605445102773,420.6982111033541,1.54827300578077
2018-09-11 18:24:30.376472235,31.1999988556,15.948453903199999,-19.7399997711,-2.3676970005,-44.0,-65.7979049683,False,1.9384695515185475,0.21204859689168676,0.00990982618739971,-0.2408156284426,-0.9403406510924983,-0.236580981630245,0.12975111638662606,0.2438424815846139,-0.25348204214577585,-1.2569167377726218,0.8658020521345707,5.165924788816706,0.0,19.389200036199444,0.15779582320135876,420.6569333528455,1.5065797343302272
2018-09-11 18:24:30.449329376,31.1499996185,26.130327224699997,-19.7299995422,-4.97563123703,-44.0,-65.2007522583,False,1.9436692660232018,0.21396182682459627,0.016763096777680807,-0.2452853934518,-0.9371173232148594,-0.24380102817692528,0.15326151826757195,0.23713205982214802,-0.25690242231159677,-1.3125802843155452,0.7215828633642691,4.854714960417634,0.0,19.32483199046608,0.14489559195168983,420.6156556023369,1.4648864628796843
2018-09-11 18:24:30.483008623,30.429998397800002,26.130327224699997,-21.2799987793,-4.97563123703,-44.0,-65.2007522583,False,1.9495377974354757,0.21592774868004871,0.023616367367961903,-0.249755158461,-0.9338939953372204,-0.2510210747236056,0.17677192014851786,0.23042163805968213,-0.2603228024774176,-1.3682438308584688,0.5773636745939675,4.543505132018562,0.0,19.260463944732717,0.13199536070202086,420.57437785182833,1.4231931914291414
2018-09-11 18:24:30.551918745,30.340000152600002,26.130327224699997,-21.2799987793,-4.97563123703,-44.0,-65.2007522583,False,1.9554063288477495,0.21789367053550115,0.030469637958243,-0.2542249234702,-0.9306706674595815,-0.25824112127028587,0.20028232202946375,0.22371121629721624,-0.26374318264323854,-1.4239073774013922,0.4331444858236658,4.23229530361949,0.0,19.19609589899935,0.11909512945235191,420.53310010131975,1.3814999199785984
2018-09-11 18:24:30.579491138,29.599998474099998,26.130327224699997,-22.409999847399998,-4.97563123703,-44.0,-65.2007522583,False,1.9612748602600232,0.2198595923909536,0.037322908548524096,-0.25869468847939997,-0.9274473395819425,-0.2654611678169661,0.22379272391040964,0.21700079453475035,-0.2671635628090594,-1.4795709239443156,0.2889252970533642,3.921085475220418,0.0,19.131727853265986,0.10619489820268295,420.49182235081116,1.3398066485280555
2018-09-11 18:24:30.649122477,29.489999771100003,26.130327224699997,-22.3699989319,-4.97563123703,-44.0,-65.2007522583,False,1.967143391672297,0.22182551424640604,0.04417617913880519,-0.26316445348859996,-0.9242240117043036,-0.2726812143636464,0.24730312579135555,0.21029037277228446,-0.2705839429748803,-1.535234470487239,0.14470610828306252,3.609875646821346,0.0,19.067359807532622,0.093294666953014,420.4505446003025,1.2981133770775126
2018-09-11 18:24:30.688992262,28.659999847399998,26.130327224699997,-22.309999465900002,-4.97563123703,-44.0,-65.2007522583,False,1.9730119230845709,0.22379143610185848,0.04721774088783638,-0.2660774022694306,-0.9219500662231592,-0.27721517805585383,0.23575383386739188,0.18669898959653033,-0.26001519257243205,-1.5786522188167054,0.042876221020881664,3.8582045983294666,0.0,19.01479150993856,0.08615777592615688,420.34106520329556,0.940802469386283
2018-09-11 18:24:30.780180216,27.6999988556,26.130327224699997,-22.1199989319,-4.97563123703,-44.0,-65.2007522583,False,1.9788804544968446,0.22575735795731092,0.04895190491837123,-0.2684563706047819,-0.9200017543176242,-0.28082782830522274,0.2121792363388457,0.1573175182065566,-0.24464823796540835,-1.6178697175174013,-0.044414340603248226,4.298452648259861,0.0,18.96627046895267,0.08099768275350092,420.2081929710162,0.4752362371873782
2018-09-11 18:24:30.803400755,27.6199989319,26.130327224699997,-22.010000228899997,-4.97563123703,-44.0,-65.2007522583,False,1.9847489859091183,0.22772327981276333,0.05068606894890608,-0.2708353389401332,-0.9180534424120892,-0.28444047855459165,0.18860463881029954,0.12793604681658288,-0.2292812833583847,-1.6570872162180974,-0.13170490222737813,4.7387006981902555,0.0,18.917749427966775,0.07583758958084495,420.0753207387369,0.00967000498847348
2018-09-11 18:24:30.866671324,27.539999008200002,28.4016342163,-21.909999847399998,-13.2932100296,-44.0,-60.2638778687,False,1.9906175173213922,0.22968920166821577,0.05242023297944093,-0.27321430727548446,-0.9161051305065541,-0.28805312880396056,0.16503004128175336,0.09855457542660914,-0.21391432875136102,-1.6963047149187935,-0.21899546385150806,5.178948748120649,0.0,18.869228386980883,0.07067749640818899,419.94244850645754,-0.45589622721043144
2018-09-11 18:24:30.887478590,26.719999313400002,28.4016342163,-21.8199996948,-13.2932100296,-44.0,-60.2638778687,False,1.9964219140341997,0.2316560143145174,0.05415439700997578,-0.27559327561083574,-0.914156818601019,-0.29166577905332947,0.14145544375320718,0.0691731040366354,-0.19854737414433737,-1.7355222136194894,-0.306286025475638,5.6191967980510436,0.0,18.820707345994986,0.06551740323553304,419.80957627417814,-0.9214624594093364
2018-09-11 18:24:30.961879969,25.989999771100003,28.4016342163,-21.729999542199998,-13.2932100296,-44.0,-60.2638778687,False,1.9973520735875638,0.2336905270653573,0.055888561040510626,-0.277972243946187,-0.912208506695484,-0.2952784293026984,0.11788084622466102,0.03979163264666166,-0.18318041953731368,-1.7747397123201856,-0.39357658709976784,6.059444847981437,0.0,18.772186305009093,0.060357310062877076,419.6767040418988,-1.3870286916082408
2018-09-11 18:24:31.008591890,25.959999084499998,28.4016342163,-21.719999313400002,-13.2932100296,-44.0,-60.2638778687,False,1.9982822331409282,0.23572503981619722,0.057622725071045475,-0.2803512122815383,-0.910260194789949,-0.2988910795520673,0.09430624869611487,0.01041016125668795,-0.16781346493029003,-1.8139572110208815,-0.4808671487238978,6.499692897911832,0.0,18.7236652640232,0.05519721689022111,419.54383180961946,-1.8525949238071457
2018-09-11 18:24:31.052516937,25.9399986267,28.4016342163,-21.6999988556,-13.2932100296,-44.0,-60.2638778687,False,1.9992123926942924,0.23775955256703712,0.059356889101580323,-0.2827301806168896,-0.908311882884414,-0.3025037298014362,0.07073165116756869,-0.01897131013328579,-0.15244651032326634,-1.8531747097215776,-0.5681577103480276,6.939940947842226,0.0,18.675144223037307,0.050037123717565156,419.41095957734007,-2.3181611560060507
2018-09-11 18:24:31.094235420,25.1000003815,28.4016342163,-21.6800003052,-13.2932100296,-44.0,-60.2638778687,False,2.000142552247657,0.23979406531787703,0.061460049457197866,-0.28209325619671044,-0.90681834823835,-0.30684252945639023,0.01931989030471165,-0.020948170942286355,-0.15549019956151042,-1.8484329327842226,-0.3715969492807426,7.268406839721576,0.0,18.65535907881429,0.04743851564499179,419.07828792558234,-2.4494194507593687
2018-09-11 18:24:31.142594576,25.090000152600002,28.4016342163,-21.6499996185,-13.2932100296,-44.0,-60.2638778687,False,2.001072711801021,0.24182857806871694,0.06356588369922904,-0.2814344774812014,-0.9053281090796733,-0.31118659106355867,-0.03229358913303172,-0.02272644761664218,-0.1586672992624014,-1.8433726103712296,-0.17297929457076588,7.596062715962876,0.0,18.63578216572724,0.04485846905865091,418.7441684519443,-2.578255224226849
2018-09-11 18:24:31.190359116,23.909999847399998,29.8320198059,-21.6399993896,-16.196298599200002,-44.0,-57.4981575012,False,2.002002871354385,0.24386309081955684,0.06567171794126023,-0.28077569876569236,-0.9038378699209968,-0.3155306526707271,-0.08390706857077511,-0.024504724290998002,-0.16184439896329234,-1.8383122879582365,0.025638360139210836,7.9237185922041755,0.0,18.616205252640185,0.04227842247231003,418.41004897830624,-2.7070909976943294
2018-09-11 18:24:31.327434063,22.4499988556,29.8320198059,-21.6999988556,-16.196298599200002,-44.0,-57.4981575012,False,2.0029330309077498,0.24589760357039675,0.06777755218329141,-0.2801169200501833,-0.9023476307623203,-0.3198747142778956,-0.13552054800851848,-0.026283000965353825,-0.16502149866418328,-1.8332519655452437,0.22425601484918767,8.251374468445475,0.0,18.59662833955313,0.039698375885969146,418.0759295046682,-2.8359267711618097
2018-09-11 18:24:31.384429932,21.0100002289,29.8320198059,-21.719999313400002,-16.196298599200002,-44.0,-57.4981575012,False,2.003863190461114,0.24793211632123666,0.06988338642532259,-0.2794581413346742,-0.9008573916036436,-0.32421877588506404,-0.1871340274462619,-0.02806127763970965,-0.16819859836507423,-1.8281916431322507,0.4228736695591644,8.579030344686775,0.0,18.57705142646608,0.037118329299628265,417.7418100310301,-2.96476254462929
2018-09-11 18:24:31.471432686,19.4599990845,29.8320198059,-21.6000003815,-16.196298599200002,-44.0,-57.4981575012,False,2.004793350014478,0.24996662907207656,0.07198922066735378,-0.2787993626191652,-0.8993671524449671,-0.3285628374922325,-0.23874750688400526,-0.029839554314065472,-0.1713756980659652,-1.8231313207192577,0.6214913242691412,8.906686220928075,0.0,18.557474513379027,0.034538282713287384,417.4076905573921,-3.0935983180967703
2018-09-11 18:24:31.502569675,19.4300003052,29.8320198059,-21.539999008200002,-16.196298599200002,-44.0,-57.4981575012,False,2.0059845175072764,0.2508737697215253,0.07409505490938495,-0.27814058390365615,-0.8978769132862905,-0.3329068990994009,-0.2903609863217486,-0.031617830988421296,-0.17455279776685614,-1.8180709983062646,0.8201089789791179,9.234342097169375,0.0,18.537897600291974,0.0319582361269465,417.073571083754,-3.22243409156425
2018-09-11 18:24:31.560269117,18.1900005341,29.8320198059,-21.510000228899997,-16.196298599200002,-44.0,-57.4981575012,False,2.0072962772758887,0.2512600359190654,0.07652863069766105,-0.27549357473245056,-0.8967077559874511,-0.3375499406627114,-0.32874812854377633,-0.03171741655372988,-0.17970754675733036,-1.819108546426914,0.9568332477726219,9.537911384802785,0.0,18.532521946600234,0.02937818959852036,416.7540651258371,-3.4118529532140967
2018-09-11 18:24:31.585403681,18.1900005341,29.8320198059,-21.520000457800002,-16.196298599200002,-44.0,-57.4981575012,False,2.0086080370445014,0.25164630211660555,0.07999434777336518,-0.2665851233798724,-0.8965497669337703,-0.34313454596849885,-0.3254821789372065,-0.026530377880098592,-0.1910904151523132,-1.8393498360788862,0.8986395400232019,9.76562589338747,0.0,18.571869662048957,0.02679814325248242,416.4805808368329,-3.7920633313785608
2018-09-11 18:24:31.652790546,18.170000076300003,29.8320198059,-21.719999313400002,-16.196298599200002,-44.0,-57.4981575012,False,2.0099197968131137,0.2520325683141457,0.08346006484906932,-0.2576766720272942,-0.8963917778800896,-0.3487191512742863,-0.32221622933063665,-0.021343339206467304,-0.20247328354729605,-1.8595911257308584,0.840445832273782,9.993340401972159,0.0,18.61121737749768,0.02421809690644448,416.20709654782877,-4.172273709543025
2018-09-11 18:24:31.680682182,16.7600002289,29.8320198059,-21.8999996185,-16.196298599200002,-44.0,-57.4981575012,False,2.0112315565817265,0.25241883451168584,0.08692578192477345,-0.24876822067471602,-0.8962337888264088,-0.3543037565800738,-0.3189502797240668,-0.01615630053283602,-0.21385615194227886,-1.8798324153828307,0.782252124524362,10.221054910556845,0.0,18.650565092946405,0.02163805056040654,415.9336122588246,-4.552484087707489
2018-09-11 18:24:31.739351988,16.7399997711,28.1820049286,-22.1499996185,-18.8107414246,-44.0,-53.6583099365,False,2.012543316350339,0.252805100709226,0.09039149900047758,-0.23985976932213782,-0.8960757997727281,-0.35988836188586126,-0.31568433011749697,-0.010969261859204733,-0.2252390203372617,-1.9000737050348029,0.724058416774942,10.44876941914153,0.0,18.68991280839513,0.019058004214368596,415.66012796982045,-4.932694465871954
2018-09-11 18:24:31.848121643,15.170000076300001,28.1820049286,-22.539999008200002,-18.8107414246,-44.0,-53.6583099365,False,2.013855076118951,0.25319136690676614,0.09385721607618171,-0.23095131796955964,-0.8959178107190473,-0.3654729671916487,-0.3124183805109272,-0.005782223185573445,-0.23662188873224455,-1.920314994686775,0.6658647090255221,10.676483927726217,0.0,18.729260523843852,0.01647795786833066,415.38664368081623,-5.312904844036418
2018-09-11 18:24:31.902613878,13.6899995804,28.1820049286,-22.859998703000002,-18.8107414246,-44.0,-53.6583099365,False,2.015166835887564,0.25357763310430625,0.09732293315188584,-0.22204286661698144,-0.8957598216653666,-0.37105757249743615,-0.30915243090435734,-0.0005951845119421609,-0.24800475712722736,-1.9405562843387472,0.6076710012761021,10.904198436310905,0.0,18.768608239292575,0.013897911522292715,415.1131593918121,-5.693115222200882
2018-09-11 18:24:31.986443758,12.119999885599999,28.1820049286,-23.260000228899997,-18.8107414246,-44.0,-53.6583099365,False,2.016478595656176,0.25396389930184643,0.10078865022758998,-0.21313441526440324,-0.8956018326116858,-0.3766421778032236,-0.3058864812977875,0.004591854161689127,-0.25938762552221023,-1.9607975739907193,0.5494772935266821,11.131912944895591,0.0,18.8079559547413,0.011317865176254775,414.8396751028079,-6.073325600365347
2018-09-11 18:24:32.061184883,10.539999961900001,28.1820049286,-23.579999923699997,-18.8107414246,-44.0,-53.6583099365,False,2.018536054967944,0.25440027384740416,0.10419282414716009,-0.20751494862025754,-0.8949287554800617,-0.3809099382092097,-0.2865110317958127,0.007842922522287058,-0.2528424199523058,-1.9822766403480279,0.5098502363573086,10.99200777199536,0.0,18.836861850710488,0.009368909303347156,414.58827936613784,-6.21896102820762
2018-09-11 18:24:32.109674454,10.529999733,28.1820049286,-23.709999084499998,-18.8107414246,-44.0,-53.6583099365,False,2.021948504913007,0.2549276989277745,0.10753273977135498,-0.2053295689510928,-0.8937178657964673,-0.38380275761687377,-0.25031536916775343,0.009072610114864866,-0.22757819597788678,-2.0050480912064965,0.48960894670533645,10.468264402250579,0.0,18.85486525869369,0.008078886130325607,414.3599466767578,-6.119672610860548
2018-09-11 18:24:32.144197702,10.5199995041,18.3438739777,-23.809999465900002,-19.9987983704,-44.0,-47.3298339844,False,2.0253609548580696,0.2554551240081448,0.11087265539554989,-0.20314418928192807,-0.8925069761128729,-0.3866955770245378,-0.21411970653969414,0.010302297707442676,-0.2023139720034678,-2.0278195420649654,0.4693676570533643,9.9445210325058,0.0,18.87286866667689,0.006788862957304057,414.13161398737776,-6.020384193513476
2018-09-11 18:24:32.204475880,9.050000190730001,18.3438739777,-23.920000076300003,-19.9987983704,-44.0,-47.3298339844,False,2.028773404803132,0.2559825490885151,0.11421257101974477,-0.20095880961276333,-0.8912960864292785,-0.38958839643220183,-0.17792404391163485,0.011531985300020484,-0.17704974802904877,-2.050590992923434,0.44912636740139217,9.420777662761022,0.0,18.89087207466009,0.005498839784282508,413.9032812979977,-5.921095776166404
2018-09-11 18:24:32.251990557,9.019999504089999,18.3438739777,-23.979999542199998,-19.9987983704,-44.0,-47.3298339844,False,2.0321858547481946,0.2565099741688854,0.11755248664393968,-0.1987734299435986,-0.890085196745684,-0.39248121583986584,-0.14172838128357557,0.012761672892598292,-0.15178552405462975,-2.0733624437819027,0.42888507774942,8.897034293016242,0.0,18.908875482643296,0.004208816611260958,413.6749486086176,-5.821807358819332
2018-09-11 18:24:32.338069916,7.75999975204,18.3438739777,-24.090000152600002,-19.9987983704,-44.0,-47.3298339844,False,2.0355983046932575,0.25703739924925567,0.12089240226813457,-0.19658805027443388,-0.8888743070620896,-0.3953740352475299,-0.10553271865551628,0.013991360485176102,-0.12652130008021073,-2.096133894640371,0.40864378809744784,8.373290923271462,0.0,18.926878890626497,0.0029187934382394094,413.44661591923756,-5.72251894147226
2018-09-11 18:24:32.402706146,6.849999904630001,18.3438739777,-24.1399993896,-19.9987983704,-44.0,-47.3298339844,False,2.03901075463832,0.257564824329626,0.12423231789232947,-0.19440267060526914,-0.8876634173784952,-0.3982668546551939,-0.06933705602745699,0.015221048077753912,-0.10125707610579174,-2.11890534549884,0.3884024984454757,7.849547553526683,0.0,18.9448822986097,0.0016287702652178597,413.21828322985755,-5.623230524125188
2018-09-11 18:24:32.464437962,6.849999904630001,18.3438739777,-24.1499996185,-19.9987983704,-44.0,-47.3298339844,False,2.0424232045833826,0.2580922494099963,0.12757223351652436,-0.1922172909361044,-0.8864525276949007,-0.40115967406285796,-0.0331413933993977,0.016450735670331722,-0.07599285213137272,-2.1416767963573085,0.36816120879350356,7.325804183781905,0.0,18.9628857065929,0.00033874709219630997,412.9899505404775,-5.523942106778116
2018-09-11 18:24:32.498148680,6.089999675750001,14.8183345795,-24.170000076300003,-22.4388408661,-44.0,-44.160442352299995,False,2.045835654528445,0.2586196744903666,0.13001296854709976,-0.18736194126063804,-0.8866764746910882,-0.4019906586850603,-0.055573909765965025,0.01849313126982714,-0.06933272420810256,-2.1485892331786545,0.41415462482598575,7.405636230626449,0.0,19.006379833345243,0.0,412.6760006793689,-5.597016054623109
2018-09-11 18:24:32.555174351,6.089999675750001,14.8183345795,-24.1999988556,-22.4388408661,-44.0,-44.160442352299995,False,2.049146425896487,0.2591177485611462,0.13213350756141068,-0.18155582177804966,-0.8874113635293444,-0.40208742896902505,-0.09888377767696077,0.02082493020837127,-0.0692974695128026,-2.1498543137819026,0.4837340580046401,7.7004000111832935,0.0,19.058951142878794,0.0,412.3315627522302,-5.731467820316983
2018-09-11 18:24:32.625926495,5.25,14.8183345795,-24.25,-22.4388408661,-44.0,-44.160442352299995,False,2.048644250626246,0.2585151597722738,0.13425404657572157,-0.17574970229546125,-0.8881462523676005,-0.40218419925298976,-0.14219364558795652,0.0231567291469154,-0.06926221481750265,-2.1511193943851508,0.5533134911832944,7.995163791740138,0.0,19.111522452412345,0.0,411.9871248250914,-5.8659195860108575
2018-09-11 18:24:32.665291071,4.25,14.8183345795,-24.289999008200002,-22.4388408661,-44.0,-44.160442352299995,False,2.0481420753560045,0.2579125709834014,0.1363745855900325,-0.16994358281287286,-0.8888811412058566,-0.4022809695369545,-0.18550351349895228,0.02548852808545953,-0.0692269601222027,-2.152384474988399,0.6228929243619488,8.289927572296984,0.0,19.164093761945892,0.0,411.6426868979527,-6.000371351704732
2018-09-11 18:24:32.694487333,4.25,14.8183345795,-24.3199996948,-22.4388408661,-44.0,-44.160442352299995,False,2.047639900085763,0.257309982194529,0.13849512460434338,-0.16413746333028445,-0.8896160300441127,-0.40237773982091923,-0.228813381409948,0.027820327024003663,-0.06919170542690274,-2.1536495555916475,0.6924723575406031,8.584691352853827,0.0,19.216665071479444,0.0,411.2982489708139,-6.134823117398607
2018-09-11 18:24:32.766574144,3.4800000190699993,14.8183345795,-24.4499988556,-22.4388408661,-44.0,-44.160442352299995,False,2.047137724815522,0.2567073934056566,0.1406156636186543,-0.15833134384769607,-0.8903509188823688,-0.402474510104884,-0.2721232493209438,0.030152125962547793,-0.06915645073160279,-2.1549146361948956,0.7620517907192573,8.879455133410673,0.0,19.26923638101299,0.0,410.9538110436752,-6.269274883092482
2018-09-11 18:24:32.801027775,3.4800000190699993,14.8183345795,-24.5199985504,-22.4388408661,-44.0,-44.160442352299995,False,2.0466355495452806,0.2561048046167842,0.1427362026329652,-0.15252522436510765,-0.891085807720625,-0.4025712803888487,-0.3154331172319395,0.03248392490109192,-0.06912119603630283,-2.156179716798144,0.8316312238979117,9.174218913967518,0.0,19.321807690546542,0.0,410.60937311653646,-6.403726648786357
2018-09-11 18:24:32.878011465,2.78999996185,14.8183345795,-24.590000152600002,-22.4388408661,-44.0,-44.160442352299995,False,2.046133374275039,0.2555022158279118,0.14485674164727608,-0.14671910488251927,-0.8918206965588811,-0.40266805067281347,-0.35874298514293523,0.03481572383963606,-0.06908594134100288,-2.157444797401392,0.9012106570765659,9.468982694524362,0.0,19.374379000080094,0.0,410.2649351893977,-6.538178414480231
2018-09-11 18:24:32.891329765,2.78999996185,14.8183345795,-24.6199989319,-22.4388408661,-44.0,-44.160442352299995,False,2.045631199004798,0.25489962703903946,0.15075029716232852,-0.1407101918412246,-0.8915315400607206,-0.40270195521432806,-0.32476929910891367,0.0378578413614651,-0.06575499015178125,-2.184894316102088,0.8660523378654293,9.210132641020882,0.0,19.429549554033596,0.0,409.88744189615596,-6.520568984623099
2018-09-11 18:24:32.940934420,2.78999996185,8.99642372131,-24.709999084499998,-22.118368148800002,-44.0,-43.16268920899999,False,2.0451290237345567,0.25429703825016703,0.15669893321023848,-0.13469831831002183,-0.891227433995605,-0.4027349420077777,-0.2896673860100012,0.04091032849764867,-0.06237592660498414,-2.2127260893735494,0.8293650003712298,8.9432006337355,0.0,19.484758053161112,0.0,409.50946604282507,-6.500739683298069
2018-09-11 18:24:32.985010862,2.40999984741,8.99642372131,-24.760000228899997,-22.118368148800002,-44.0,-43.16268920899999,False,2.0446268484643153,0.25369444946129466,0.16264756925814847,-0.12868644477881905,-0.8909233279304896,-0.40276792880122736,-0.2545654729110887,0.04396281563383224,-0.058996863058187014,-2.2405578626450113,0.7926776628770303,8.676268626450117,0.0,19.53996655228863,0.0,409.13149018949423,-6.480910381973039
2018-09-11 18:24:33.059473991,2.40999984741,8.99642372131,-24.8199996948,-22.118368148800002,-44.0,-43.16268920899999,False,2.0448174489785846,0.25255465600272664,0.16859620530605843,-0.12267457124761627,-0.890619221865374,-0.402800915594677,-0.21946355981217627,0.04701530277001581,-0.05561779951138989,-2.268389635916473,0.7559903253828308,8.409336619164735,0.0,19.595175051416145,0.0,408.75351433616333,-6.461081080648009
2018-09-11 18:24:33.097479343,2.1099998951,8.99642372131,-24.8500003815,-22.118368148800002,-44.0,-43.16268920899999,False,2.0453092563556843,0.25118129529646493,0.17454484135396842,-0.11666269771641348,-0.8903151158002585,-0.40283390238812666,-0.1843616467132638,0.05006778990619938,-0.052238735964592775,-2.2962214091879347,0.7193029878886312,8.142404611879352,0.0,19.650383550543665,0.0,408.3755384828325,-6.441251779322979
2018-09-11 18:24:33.153966904,2.09999990463,8.99642372131,-24.8899993896,-22.118368148800002,-44.0,-43.16268920899999,False,2.045801063732784,0.24980793459020323,0.18049347740187838,-0.1106508241852107,-0.8900110097351429,-0.4028668891815763,-0.14925973361435133,0.05312027704238295,-0.04885967241779565,-2.324053182459396,0.6826156503944317,7.875472604593969,0.0,19.705592049671182,0.0,407.99756262950166,-6.4214224779979485
2018-09-11 18:24:33.250152111,1.82999992371,8.99642372131,-24.9499988556,-22.118368148800002,-44.0,-43.16268920899999,False,2.046292871109884,0.24843457388394152,0.18644211344978837,-0.10463895065400793,-0.8897069036700274,-0.40289987597502597,-0.11415782051543888,0.05617276417856652,-0.04548060887099853,-2.351884955730858,0.6459283129002322,7.608540597308586,0.0,19.7608005487987,0.0,407.61958677617076,-6.401593176672919
2018-09-11 18:24:33.307053328,1.7599999904599997,8.99642372131,-24.969999313400002,-22.118368148800002,-44.0,-43.16268920899999,False,2.0467846784869836,0.2470612131776798,0.19105203476812993,-0.10007614548953597,-0.8893640697088468,-0.40312970040181434,-0.08375997091546991,0.0537901267651391,-0.04144636563107312,-2.3726177155452435,0.59504294849188,7.485363612529,0.0,19.813462989752203,0.0,407.24281767709743,-6.405931594478631
2018-09-11 18:24:33.365138769,1.87000000477,8.99642372131,-24.979999542199998,-22.118368148800002,-44.0,-43.16268920899999,False,2.0472764858640833,0.24568785247141808,0.19127509089573178,-0.10026182589604363,-0.8888943274113305,-0.40400454661169743,-0.06877697555050091,0.033597004289139656,-0.03526514893520416,-2.3700875543387467,0.4976317420417639,7.833260778422272,0.0,19.85778219392009,0.0,406.87000301889884,-6.489465768820468
2018-09-11 18:24:33.394829512,1.86000001431,8.99642372131,-24.979999542199998,-22.118368148800002,-44.0,-43.16268920899999,False,2.0477682932411834,0.24431449176515638,0.19149814702333365,-0.10044750630255128,-0.888424585113814,-0.4048793928215805,-0.0537939801855319,0.0134038818131402,-0.029083932239335204,-2.3675573931322504,0.4002205355916479,8.181157944315544,0.0,19.90210139808798,0.0,406.49718836070025,-6.572999943162306
2018-09-11 18:24:33.462643862,1.86000001431,1.51795339584,-24.989999771100003,-24.859226226799997,-44.0,-41.5942306519,False,2.048260100618283,0.24294113105889464,0.1917212031509355,-0.10063318670905894,-0.8879548428162974,-0.40575423903146357,-0.038810984820562895,-0.006789240662859242,-0.02290271554346625,-2.3650272319257537,0.30280932914153186,8.529055110208814,0.0,19.94642060225587,0.0,406.1243737025016,-6.656534117504143
2018-09-11 18:24:33.497016907,1.9799998998599997,1.51795339584,-24.989999771100003,-24.859226226799997,-44.0,-41.5942306519,False,2.0487519079953826,0.24156777035263294,0.19194425927853734,-0.10081886711556659,-0.887485100518781,-0.4066290852413466,-0.02382798945559389,-0.026982363138858698,-0.016721498847597292,-2.3624970707192574,0.20539812269141583,8.876952276102086,0.0,19.990739806423758,0.0,405.751559044303,-6.740068291845981
2018-09-11 18:24:33.520208358,1.9799998998599997,1.51795339584,-24.989999771100003,-24.859226226799997,-44.0,-41.5942306519,False,2.04919058493051,0.24042337528659397,0.1921673154061392,-0.10100454752207425,-0.8870153582212645,-0.4075039314512297,-0.008844994090624891,-0.04717548561485814,-0.010540282151728336,-2.359966909512761,0.10798691624129975,9.224849441995357,0.0,20.03505901059165,0.0,405.3787443861044,-6.823602466187818
2018-09-11 18:24:33.561962128,2.15999984741,1.51795339584,-24.989999771100003,-24.859226226799997,-44.0,-41.5942306519,False,2.0495380025182506,0.23967226237905523,0.19239037153374106,-0.10119022792858191,-0.886545615923748,-0.40837877766111275,0.006138001274344121,-0.06736860809085758,-0.004359065455859373,-2.3574367483062644,0.010575709791183718,9.572746607888629,0.0,20.079378214759537,0.0,405.00592972790577,-6.907136640529656
2018-09-11 18:24:33.612052679,2.15999984741,1.51795339584,-24.989999771100003,-24.859226226799997,-44.0,-41.5942306519,False,2.0498854201059906,0.23892114947151646,0.19261342766134293,-0.10137590833508957,-0.8860758736262316,-0.40925362387099584,0.02112099663931312,-0.08756173056685705,0.0018221512400095827,-2.354906587099768,-0.08683549665893231,9.9206437737819,0.0,20.123697418927424,0.0,404.6331150697072,-6.9906708148714936
2018-09-11 18:24:33.659417152,2.2699999809299998,1.51795339584,-24.989999771100003,-24.859226226799997,-44.0,-41.5942306519,False,2.0502328376937307,0.23817003656397773,0.1909126281868167,-0.10250701341838515,-0.8862815967124088,-0.409239994892839,0.018946606597596227,-0.09655995891712171,0.009480883399122054,-2.3590840834802784,-0.08851013573085885,10.14231501962877,0.0,20.187075652520836,0.0037308583852865606,404.2640292206167,-7.062053892842723
2018-09-11 18:24:33.728573084,2.25999999046,1.51795339584,-24.989999771100003,-24.859226226799997,-44.0,-41.5942306519,False,2.0505802552814707,0.237418923656439,0.18714440179657077,-0.10465409725882599,-0.8872131930467346,-0.4082715866081318,-0.0016655707468281877,-0.093527853281522,0.018727393369481315,-2.3704698089095126,0.012696312529001968,10.22834050064965,0.0,20.27093523116854,0.011470997423418443,403.89895044997076,-7.120379076206733
2018-09-11 18:24:33.787864685,2.38999986649,1.51795339584,-24.989999771100003,-24.859226226799997,-44.0,-41.5942306519,False,2.050927672869211,0.23666781074890025,0.18337617540632484,-0.10680118109926683,-0.8881447893810603,-0.4073031783234246,-0.0222777480912526,-0.09049574764592228,0.027973903339840574,-2.3818555343387473,0.1139027607888628,10.314365981670532,0.0,20.35479480981624,0.019211136461550326,403.5338716793248,-7.178704259570742
2018-09-11 18:24:33.858522892,2.39999985695,1.51795339584,-24.989999771100003,-24.859226226799997,-44.0,-41.5942306519,False,2.0512750904569512,0.2359166978413615,0.17960794901607888,-0.10894826493970766,-0.8890763857153862,-0.40633477003871743,-0.04288992543567702,-0.08746364201032256,0.03722041331019983,-2.3932412597679815,0.2151092090487236,10.400391462691415,0.0,20.438654388463945,0.02695127549968221,403.1687929086789,-7.237029442934752
2018-09-11 18:24:33.873078585,2.37999987602,1.38286936283,-24.989999771100003,-25.125270843499997,-44.0,-40.6661109924,False,2.0516225080446913,0.23516558493382275,0.17583972262583294,-0.1110953487801485,-0.8900079820497119,-0.4053663617540102,-0.06350210278010143,-0.08443153637472284,0.0464669232805591,-2.4046269851972157,0.3163156573085844,10.486416943712296,0.0,20.522513967111646,0.03469141453781409,402.80371413803294,-7.295354626298761
2018-09-11 18:24:33.937837124,2.38999986649,1.38286936283,-24.979999542199998,-25.125270843499997,-44.0,-40.6661109924,False,2.0519699256324313,0.23441447202628402,0.172071496235587,-0.11324243262058933,-0.8909395783840376,-0.404397953469303,-0.08411428012452585,-0.08139943073912312,0.055713433250918355,-2.41601271062645,0.4175221055684452,10.572442424733179,0.0,20.60637354575935,0.042431553575945975,402.438635367387,-7.35367980966277
2018-09-11 18:24:33.978320122,2.40999984741,1.38286936283,-24.979999542199998,-25.125270843499997,-44.0,-40.6661109924,False,2.052311472973053,0.23365792338345803,0.16830326984534105,-0.11538951646103017,-0.8918711747183634,-0.40342954518459584,-0.10472645746895026,-0.0783673251035234,0.06495994322127761,-2.4273984360556846,0.518728553828306,10.65846790575406,0.0,20.69023312440705,0.050171692614077855,402.073556596741,-7.4120049930267795
2018-09-11 18:24:34.020311356,2.40999984741,1.38286936283,-24.979999542199998,-25.125270843499997,-44.0,-40.6661109924,False,2.0525082208847563,0.23276729327021348,0.16453504345509512,-0.117536600301471,-0.8928027710526891,-0.4024611368998886,-0.12533863481337468,-0.07533521946792368,0.07420645319163688,-2.438784161484919,0.6199350020881669,10.744493386774941,0.0,20.774092703054755,0.057911831652209735,401.7084778260951,-7.470330176390789
2018-09-11 18:24:34.060565472,2.24000000954,1.38286936283,-24.959999084499998,-25.125270843499997,-44.0,-40.6661109924,False,2.0527049687964594,0.23187666315696892,0.164274298645129,-0.11728806871218887,-0.8930739976216093,-0.40207469622238795,-0.11398664957879667,-0.0687706272332125,0.06397028233329752,-2.444627195638051,0.6370772993271463,10.410198112691416,0.0,20.81265425807183,0.0713039437745855,401.3999222266139,-7.409129079924204
2018-09-11 18:24:34.145032406,2.24000000954,1.38286936283,-24.909999847399998,-25.125270843499997,-44.0,-40.6661109924,False,2.0529017167081625,0.2309860330437244,0.16530942141408397,-0.11615445753064456,-0.8931012452131629,-0.40190326820764827,-0.09082524467217337,-0.06090092911213008,0.046536076686030034,-2.4484224374477956,0.6231614126914153,9.92061191923434,0.0,20.834480090072667,0.0867842232926179,401.1122495721443,-7.303768027855184
2018-09-11 18:24:34.173600674,2.1099998951,1.38286936283,-24.1800003052,-25.125270843499997,-44.0,-40.6661109924,False,2.0530984646198656,0.23009540293047984,0.16634454418303898,-0.11502084634910023,-0.8931284928047165,-0.4017318401929086,-0.06766383976555007,-0.053031230991047666,0.029101871038762557,-2.4522176792575405,0.6092455260556845,9.431025725777262,0.0,20.856305922073503,0.1022645028106503,400.8245769176747,-7.198406975786162
2018-09-11 18:24:34.256481886,2.09999990463,1.38286936283,-24.170000076300003,-25.125270843499997,-44.0,-40.6661109924,False,2.0532952125315687,0.22920477281723528,0.16737966695199397,-0.11388723516755592,-0.8931557403962701,-0.4015604121781689,-0.04450243485892677,-0.04516153286996525,0.01166766539149508,-2.4560129210672854,0.5953296394199536,8.941439532320185,0.0,20.87813175407434,0.1177447823286827,400.5369042632051,-7.093045923717142
2018-09-11 18:24:34.274657488,1.9900000095400003,1.38286936283,-21.9399986267,-25.125270843499997,-44.0,-40.6661109924,False,2.0534919604432718,0.22831414270399072,0.16841478972094895,-0.1127536239860116,-0.8931829879878237,-0.4013889841634292,-0.02134102995230347,-0.037291834748882834,-0.00576654025577239,-2.4598081628770303,0.5814137527842227,8.451853338863108,0.0,20.89995758607517,0.1332250618467151,400.2492316087355,-6.987684871648121
2018-09-11 18:24:34.343744993,1.9900000095400003,4.9420957565300005,-21.9399986267,-22.772556304899997,-44.0,-42.5056419373,False,2.053688708354975,0.22742351259074617,0.16944991248990396,-0.11162001280446729,-0.8932102355793773,-0.4012175561486896,0.001820374954319831,-0.029422136627800417,-0.023200745903039874,-2.4636034046867747,0.5674978661484918,7.962267145406032,0.0,20.921783418076007,0.1487053413647475,399.9615589542659,-6.8823238195791
2018-09-11 18:24:34.363454819,1.9799998998599997,4.9420957565300005,-19.7999992371,-22.772556304899997,-44.0,-42.5056419373,False,2.0538854562666775,0.2265328824775016,0.17048503525885894,-0.11048640162292296,-0.8932374831709309,-0.4010461281339499,0.024981779860943132,-0.021552438506718,-0.040634951550307344,-2.4673986464965196,0.553581979512761,7.472680951948956,0.0,20.943609250076843,0.16418562088277988,399.6738862997963,-6.77696276751008
2018-09-11 18:24:34.455015182,1.9699999094,4.9420957565300005,-19.7999992371,-22.772556304899997,-44.0,-42.5056419373,False,2.0540822041783806,0.22564225236425706,0.17152015802781392,-0.10935279044137865,-0.8932647307624845,-0.4008747001192102,0.04814318476756643,-0.013682740385635585,-0.05806915719757483,-2.4711938883062645,0.5396660928770302,6.9830947584918786,0.0,20.96543508207768,0.17966590040081226,399.38621364532673,-6.671601715441058
2018-09-11 18:24:34.485806942,2.09999990463,4.9420957565300005,-17.4899997711,-22.772556304899997,-44.0,-42.5056419373,False,2.0546391774980095,0.22461732647270718,0.16754587668937215,-0.10701188349657642,-0.8936609829168966,-0.40210390706585153,0.04334857278693668,-0.040804190385682504,-0.05024837391866107,-2.4168136249651972,0.48366579825986067,7.8352585136194906,0.0,21.045215196908767,0.20524362513791328,398.98620118336197,-6.761608385320326
2018-09-11 18:24:34.565704346,2.13999986649,4.9420957565300005,-15.170000076300001,-22.772556304899997,-44.0,-42.5056419373,False,2.055343316075754,0.2235375358424594,0.16346109378973783,-0.10464434502758468,-0.8940653748778422,-0.40336401037193503,0.037937283963205795,-0.06869750394722487,-0.04187049529578746,-2.3611500784222734,0.426737171113689,8.717019694083527,0.0,21.126273715037584,0.23104408763719958,398.5837106374084,-6.855924637301393
2018-09-11 18:24:34.594280720,2.13999986649,4.9420957565300005,-15.170000076300001,-22.772556304899997,-44.0,-42.5056419373,False,2.056047454653499,0.2224577452122116,0.15937631089010348,-0.10227680655859295,-0.8944697668387879,-0.4046241136780186,0.032525995139474906,-0.09659081750876725,-0.03349261667291385,-2.30548653187935,0.3698085439675173,9.598780874547565,0.0,21.2073322331664,0.2568445501364859,398.1812200914548,-6.95024088928246
2018-09-11 18:24:34.663608313,2.25,3.60483217239,-12.739999771099999,-23.2110424042,-44.0,-42.4023017883,False,2.056751593231244,0.2213779545819638,0.15529152799046914,-0.0999092680896012,-0.8948741587997336,-0.4058842169841021,0.027114706315744017,-0.12448413107030963,-0.025114738050040247,-2.2498229853364267,0.3128799168213455,10.480542055011602,0.0,21.288390751295218,0.2826450126357722,397.77872954550116,-7.044557141263527
2018-09-11 18:24:34.692909241,2.25,3.60483217239,-12.739999771099999,-23.2110424042,-44.0,-42.4023017883,False,2.0574557318089886,0.220298163951716,0.1512067450908348,-0.09754172962060946,-0.8952785507606793,-0.40714432029018566,0.02170341749201313,-0.15237744463185202,-0.016736859427166635,-2.1941594387935033,0.25595128967517383,11.36230323547564,0.0,21.369449269424035,0.3084454751350585,397.3762389995476,-7.1388733932445945
2018-09-11 18:24:34.747482777,2.25999999046,3.60483217239,-12.739999771099999,-23.2110424042,-44.0,-42.4023017883,False,2.058159870386733,0.2192183733214682,0.14712196219120044,-0.09517419115161772,-0.895682942721625,-0.40840442359626916,0.016292128668282245,-0.1802707581933944,-0.00835898080429303,-2.13849589225058,0.19902266252900214,12.244064415939675,0.0,21.45050778755285,0.33424593763434485,396.973748453594,-7.233189645225662
2018-09-11 18:24:34.799226522,2.29999995232,3.60483217239,-10.3899993896,-23.2110424042,-44.0,-42.4023017883,False,2.058864008964478,0.2181385826912204,0.14303717929156612,-0.09280665268262599,-0.8960873346825706,-0.40966452690235267,0.010880839844551356,-0.20816407175493679,1.889781858058215e-05,-2.0828323457076565,0.14209403538283044,13.125825596403715,0.0,21.531566305681668,0.3600464001336311,396.5712579076404,-7.327505897206729
2018-09-11 18:24:34.865350962,2.14999985695,3.60483217239,-8.15999984741,-23.2110424042,-44.0,-42.4023017883,False,2.0595681475422225,0.21705879206097262,0.13881804722566216,-0.09019167782486497,-0.8966830967641777,-0.4104792383092571,0.0009706400862008304,-0.22895957404385617,0.006421064871107571,-2.0194281441067283,0.09720642721577726,13.818084073410672,0.0,21.615414723455267,0.3832157729123782,396.19887958707477,-7.41436968956452
2018-09-11 18:24:34.901529312,2.14999985695,3.60483217239,-8.15999984741,-23.2110424042,-44.0,-42.4023017883,False,2.0602722861199676,0.21597900143072482,0.13414042197328258,-0.08673227719590719,-0.8979319473528031,-0.4097739614888042,-0.02429298587759734,-0.22553238706906267,0.006080724183562895,-1.9296074212761019,0.09341118540603248,13.863626975127609,0.0,21.708784227318187,0.397406029978174,395.9292652102933,-7.475800484795258
2018-09-11 18:24:34.954396248,2.16999983788,3.60483217239,-8.15999984741,-23.2110424042,-44.0,-42.4023017883,False,2.060641410022,0.2149362793060696,0.12946279672090302,-0.08327287656694943,-0.8991807979414287,-0.4090686846683513,-0.04955661184139551,-0.22210520009426915,0.005740383496018218,-1.8397866984454756,0.0896159435962877,13.909169876844546,0.0,21.80215373118111,0.4115962870439698,395.6596508335119,-7.5372312800259955
2018-09-11 18:24:34.969231844,2.11999988556,3.60483217239,-6.1199998855599995,-23.2110424042,-44.0,-42.4023017883,False,2.060466135076,0.2139537935030023,0.12478517146852344,-0.07981347593799165,-0.9004296485300542,-0.4083634078478984,-0.07482023780519369,-0.21867801311947566,0.005400042808473541,-1.7499659756148493,0.08582070178654293,13.954712778561483,0.0,21.895523235044035,0.4257865441097656,395.3900364567304,-7.598662075256733
2018-09-11 18:24:35.057455540,2.12999987602,3.60483217239,-6.1199998855599995,-23.2110424042,-44.0,-42.4023017883,False,2.06029086013,0.21297130769993503,0.12010754621614386,-0.07635407530903389,-0.9016784991186797,-0.40765813102744547,-0.10008386376899185,-0.21525082614468216,0.005059702120928864,-1.660145252784223,0.08202545997679815,14.000255680278421,0.0,21.98889273890696,0.43997680117556137,395.120422079949,-7.660092870487471
2018-09-11 18:24:35.089218140,1.89999997616,3.60483217239,-4.1999998092699995,-23.2110424042,-44.0,-42.4023017883,False,2.060115585184,0.21198882189686774,0.11542992096376428,-0.07289467468007611,-0.9029273497073053,-0.40695285420699256,-0.12534748973279003,-0.21182363916988867,0.004719361433384187,-1.5703245299535968,0.07823021816705339,14.045798581995358,0.0,22.082262242769882,0.45416705824135717,394.8508077031675,-7.721523665718209
2018-09-11 18:24:35.122531414,1.90999996662,2.92332339287,-4.1999998092699995,-18.995248794600002,-44.0,-41.2643356323,False,2.059940310238,0.21100633609380046,0.1107522957113847,-0.06943527405111835,-0.9041762002959308,-0.40624757738653966,-0.1506111156965882,-0.20839645219509514,0.004379020745839511,-1.4805038071229704,0.07443497635730861,14.091341483712295,0.0,22.175631746632806,0.468357315307153,394.5811933263861,-7.782954460948947
2018-09-11 18:24:35.162679195,1.73000001907,2.92332339287,-2.49000000954,-18.995248794600002,-44.0,-41.2643356323,False,2.059765035292,0.21002385029073317,0.10607467045900512,-0.06597587342216057,-0.9054250508845564,-0.40554230056608676,-0.17587474166038636,-0.20496926522030165,0.004038680058294834,-1.390683084292344,0.07063973454756384,14.136884385429232,0.0,22.269001250495727,0.4825475723729488,394.3115789496046,-7.8443852561796845
2018-09-11 18:24:35.253892899,1.75,2.92332339287,-2.49000000954,-18.995248794600002,-44.0,-41.2643356323,False,2.059589760346,0.2090413644876659,0.10043826388061573,-0.06190684703543224,-0.9064929909800978,-0.4051108411976728,-0.17129597985425507,-0.21245930785368616,0.0030088436943237922,-1.2984596184454764,0.0728513502784222,14.29595689466357,0.0,22.364480365140274,0.4942877121150992,394.09096801461067,-7.63375322226702
2018-09-11 18:24:35.267264605,1.5899999141699999,2.92332339287,-0.9300000071529999,-18.995248794600002,-44.0,-41.2643356323,False,2.0594144854,0.2080588786845986,0.09374138704770028,-0.057163537613594,-0.9073608331060162,-0.4049822405262111,-0.13370972854501886,-0.2320244680839952,0.0012163833246084136,-1.203578573201857,0.08170691450116002,14.580600030394429,0.0,22.462292837164497,0.5033178736053386,393.9245578561392,-7.122203210665433
2018-09-11 18:24:35.346221685,1.5899999141699999,2.92332339287,-0.9300000071529999,-18.995248794600002,-44.0,-41.2643356323,False,2.059239210454,0.20707639288153135,0.08704451021478482,-0.05242022819175576,-0.9082286752319345,-0.4048536398547494,-0.09612347723578266,-0.25158962831430426,-0.000576077045106965,-1.1086975279582374,0.09056247872389785,14.865243166125287,0.0,22.56010530918872,0.512348035095578,393.75814769766777,-6.610653199063846
2018-09-11 18:24:35.411898851,1.56999993324,2.92332339287,0.409999996424,-18.995248794600002,-44.0,-41.2643356323,False,2.0591033777750996,0.20609635288151743,0.08034763338186937,-0.047676918769917524,-0.9090965173578529,-0.40472503918328767,-0.05853722592654645,-0.27115478854461333,-0.002368537414822344,-1.0138164827146179,0.09941804294663567,15.149886301856146,0.0,22.657917781212944,0.5213781965858175,393.5917375391963,-6.0991031874622585
2018-09-11 18:24:35.424587727,1.57999992371,2.92332339287,0.409999996424,-18.995248794600002,-44.0,-41.2643356323,False,2.0596873664707704,0.20516094878722738,0.07365075654895392,-0.042933609348079285,-0.9099643594837712,-0.404596438511826,-0.020950974617310242,-0.29071994877492235,-0.004160997784537723,-0.9189354374709984,0.1082736071693735,15.434529437587004,0.0,22.755730253237168,0.5304083580760569,393.4253273807248,-5.587553175860672
2018-09-11 18:24:35.490609407,1.5,2.92332339287,1.73000001907,-18.995248794600002,-44.0,-41.2643356323,False,2.060271355166441,0.20422554469293736,0.06695387971603847,-0.038190299926241046,-0.9108322016096896,-0.4044678378403642,0.016635276691925965,-0.31028510900523143,-0.005953458154253102,-0.8240543922273789,0.11712917139211132,15.719172573317863,0.0,22.85354272526139,0.5394385195662964,393.2589172222534,-5.076003164259085
2018-09-11 18:24:35.520580530,1.5,1.9066289663299998,1.73000001907,-13.872590065,-44.0,-42.0464859009,False,2.0608553438621113,0.20329014059864733,0.06025700288312301,-0.03344699050440281,-0.9117000437356079,-0.4043392371689025,0.05422152800116217,-0.3298502692355405,-0.007745918523968481,-0.7291733469837594,0.12598473561484913,16.003815709048723,0.0,22.951355197285615,0.5484686810565358,393.0925070637819,-4.564453152657498
2018-09-11 18:24:35.558862448,1.5499999523199999,1.9066289663299998,2.77999997139,-13.872590065,-44.0,-42.0464859009,False,2.061439332557782,0.2023547365043573,0.05356012605020755,-0.028703681082564568,-0.9125678858615262,-0.4042106364974408,0.09180777931039841,-0.3494154294658496,-0.00953837889368386,-0.6342923017401398,0.13484029983758697,16.28845884477958,0.0,23.04916766930984,0.5574988425467753,392.9260969053105,-4.052903141055911
2018-09-11 18:24:35.681357622,1.62000000477,1.9066289663299998,3.61999988556,-13.872590065,-44.0,-42.0464859009,False,2.0620233212534522,0.2014193324100673,0.0470032551679642,-0.026873073692930766,-0.9129249895095981,-0.40425089223942456,0.08474871739937632,-0.3520426864140831,-0.005581643262995302,-0.6070976194199537,0.11991416897911847,16.06088085568446,0.0,23.064003465979443,0.5609327161116394,392.8846673175211,-3.649373022750661
2018-09-11 18:24:35.746360302,1.62000000477,1.9066289663299998,3.61999988556,-13.872590065,-44.0,-42.0464859009,False,2.062607309949123,0.20048392831577727,0.04050001840612756,-0.02615827752956436,-0.9130864371238682,-0.4043558342691462,0.060586724553229956,-0.3481812938462975,0.0005775206862560223,-0.6058325388167054,0.09587763751740153,15.637078853596291,0.0,23.047052178060465,0.5622227380832004,392.8911158587991,-3.2872236595887863
2018-09-11 18:24:35.820634365,1.93999993801,1.9066289663299998,4.28999996185,-13.872590065,-44.0,-42.0464859009,False,2.0631912986447936,0.19954852422148722,0.03399678164429093,-0.025443481366197958,-0.9132478847381382,-0.40446077629886773,0.03642473170708359,-0.34431990127851186,0.006736684635507346,-0.6045674582134571,0.07184110605568457,15.213276851508123,0.0,23.030100890141487,0.5635127600547615,392.89756440007704,-2.925074296426912
2018-09-11 18:24:35.901121140,2.24000000954,1.9066289663299998,4.7999997139,-13.872590065,-44.0,-42.0464859009,False,2.063775287340464,0.1986131201271972,0.0274935448824543,-0.024728685202831554,-0.9134093323524083,-0.40456571832858934,0.012262738860937233,-0.34045850871072625,0.012895848584758672,-0.6033023776102089,0.04780457459396763,14.789474849419957,0.0,23.013149602222505,0.5648027820263225,392.904012941355,-2.5629249332650366
2018-09-11 18:24:35.934182644,2.25,1.9066289663299998,4.7999997139,-13.872590065,-44.0,-42.0464859009,False,2.0643592760361344,0.19767771603290718,0.020990308120617668,-0.02401388903946515,-0.9135707799666783,-0.4046706603583109,-0.011899253985209135,-0.33659711614294063,0.01905501253401,-0.6020372970069606,0.023768043132250685,14.365672847331789,0.0,22.996198314303527,0.5660928039978835,392.91046148263297,-2.200775570103162
2018-09-11 18:24:35.966234446,2.67999982834,1.9066289663299998,5.1300001144400005,-13.872590065,-44.0,-42.0464859009,False,2.0642053865854804,0.19687501429408863,0.014487071358781037,-0.02329909287609875,-0.9137322275809485,-0.4047756023880325,-0.03606124683135549,-0.33273572357515496,0.025214176483261325,-0.6007722164037124,-0.000268488329466271,13.94187084524362,0.0,22.97924702638455,0.5673828259694446,392.9169100239109,-1.8386262069412869
2018-09-11 18:24:36.026952744,2.6900000572200002,0.47348654270199997,5.1300001144400005,-6.69214344025,-44.0,-42.2618865967,False,2.063768717485935,0.19612316854778608,0.007983834596944399,-0.022584296712732342,-0.9138936751952186,-0.40488054441775406,-0.06022323967750186,-0.32887433100736935,0.03137334043251265,-0.5995071358004641,-0.024305019791183213,13.518068843155454,0.0,22.962295738465567,0.5686728479410056,392.92335856518883,-1.476476843779412
2018-09-11 18:24:36.044671297,2.6900000572200002,0.47348654270199997,5.1300001144400005,-6.69214344025,-44.0,-42.2618865967,False,2.0633320483863895,0.1953713228014835,0.0014805978351077678,-0.02186950054936594,-0.9140551228094886,-0.4049854864474757,-0.08438523252364823,-0.32501293843958373,0.037532504381763976,-0.5982420551972158,-0.048341551252900156,13.094266841067288,0.0,22.94534445054659,0.5699628699125666,392.9298071064668,-1.1143274806175372
2018-09-11 18:24:36.076531410,2.89999985695,0.47348654270199997,5.2999997139,-6.69214344025,-44.0,-42.2618865967,False,2.0628953792868443,0.19461947705518096,-0.003801981928067051,-0.01604596810017265,-0.9151864981945568,-0.4020919638194107,-0.06908051737013768,-0.30380829027793743,0.03836101501869281,-0.5527446599767984,-0.00480093538283085,13.407670082598607,0.0,22.839780763257775,0.5662412957356172,393.0590412469188,-0.5122125392138545
2018-09-11 18:24:36.170029640,3.27999997139,0.47348654270199997,5.480000019069999,-6.69214344025,-44.0,-42.2618865967,False,2.062458710187299,0.1938676313088784,-0.0090483940764667,-0.010071065686954839,-0.9163466121802413,-0.39910959779407795,-0.05260641827589639,-0.282089767876473,0.039031580372293546,-0.5059366776566129,0.04074196633410644,13.742916442459395,0.0,22.731591523395036,0.5623712298209341,393.19191347919815,0.0970124933969938
2018-09-11 18:24:36.222489357,3.27999997139,0.47348654270199997,5.480000019069999,-6.69214344025,-44.0,-42.2618865967,False,2.062022041087754,0.19311578556257586,-0.01429480622486635,-0.0040961632737370295,-0.9175067261659258,-0.39612723176874526,-0.03613231918165512,-0.2603712454750085,0.03970214572589429,-0.4591286953364273,0.08628486805104371,14.078162802320183,0.0,22.623402283532297,0.558501163906251,393.3247857114775,0.706237526007842
2018-09-11 18:24:36.258709191,3.27999997139,0.47348654270199997,5.480000019069999,-6.69214344025,-44.0,-42.2618865967,False,2.0615853719882087,0.1923639398162733,-0.019541218373265997,0.0018787391394807784,-0.9186668401516103,-0.3931448657434125,-0.019658220087413844,-0.23865272307354404,0.04037271107949503,-0.41232071301624174,0.131827769767981,14.413409162180972,0.0,22.51521304366956,0.554631097991568,393.45765794375683,1.31546255861869
2018-09-11 18:24:36.333366632,3.3899998664899997,0.47348654270199997,5.6099996566799994,-6.69214344025,-44.0,-42.2618865967,False,2.0611487028886635,0.19161209406997076,-0.024787630521665646,0.00785364155269859,-0.9198269541372947,-0.3901624997180798,-0.0031841209931725567,-0.21693420067207958,0.04104327643309577,-0.36551273069605617,0.17737067148491828,14.74865552204176,0.0,22.407023803806823,0.550761032076885,393.5905301760362,1.9246875912295387
2018-09-11 18:24:36.410467625,3.46000003815,0.47348654270199997,5.6299996376,-6.69214344025,-44.0,-42.2618865967,False,2.0607120337891183,0.1908602483236682,-0.0300340426700653,0.013828543965916401,-0.9209870681229791,-0.3871801336927471,0.013289978101068717,-0.19521567827061512,0.041713841786696515,-0.31870474837587065,0.2229135732018556,15.083901881902548,0.0,22.298834563944087,0.5468909661622019,393.72340240831556,2.533912623840387
2018-09-11 18:24:36.462975264,3.46000003815,2.22951841354,5.6299996376,-1.14952909946,-44.0,-42.2293930054,False,2.060216622215021,0.19036953169847656,-0.035280454818464944,0.019803446379134206,-0.9221471821086636,-0.38419776766741437,0.02976407719530999,-0.17349715586915065,0.04238440714029725,-0.2718967660556851,0.2684564749187929,15.419148241763336,0.0,22.19064532408135,0.5430209002475188,393.8562746405949,3.1431376564512354
2018-09-11 18:24:36.488981247,3.28999996185,2.22951841354,5.4499998092699995,-1.14952909946,-44.0,-42.2293930054,False,2.0596308376031507,0.1902805521826863,-0.04005442779026232,0.02400345941821104,-0.9231917355852767,-0.3814533774102241,0.04696162828437826,-0.15091491862650708,0.043665481066582454,-0.2400786236890948,0.298176767795824,15.586730465846875,0.0,22.07832893315527,0.5385847078955031,394.0058474652724,3.661348359930934
2018-09-11 18:24:36.519426107,3.28999996185,2.22951841354,5.4499998092699995,-1.14952909946,-44.0,-42.2293930054,False,2.0590450529912805,0.19019157266689607,-0.04314775647808098,0.021889521732884155,-0.9238251967591272,-0.3795555566888849,0.06673277089602811,-0.1252601220308162,0.04711836417766338,-0.2615849939443152,0.2716100751276106,15.157868141345714,0.0,21.95133070975796,0.5321345903483857,394.2148305940548,3.855786777812911
2018-09-11 18:24:36.565386295,3.4399998188,2.22951841354,5.0299997329699995,-1.14952909946,-44.0,-42.2293930054,False,2.0584592683794107,0.1901025931511058,-0.046241085165899636,0.019775584047557266,-0.9244586579329778,-0.3776577359675457,0.08650391350767796,-0.09960532543512535,0.05057124728874431,-0.2830913641995356,0.2450433824593971,14.729005816844554,0.0,21.824332486360653,0.5256844728012683,394.4238137228371,4.050225195694888
2018-09-11 18:24:36.622875929,3.4399998188,2.22951841354,5.0299997329699995,-1.14952909946,-44.0,-42.2293930054,False,2.0578734837675405,0.19001361363531555,-0.04933441385371829,0.01766164636223038,-0.9250921191068283,-0.3757599152462065,0.1062750561193278,-0.07395052883943448,0.054024130399825246,-0.3045977344547561,0.21847668979118365,14.300143492343393,0.0,21.697334262963345,0.5192343552541508,394.6327968516195,4.244663613576865
