time,roll_commanded,roll_measured,pitch_commanded,pitch_measured,yaw_commanded,yaw_measured,label,wind_estimation_linear_x,wind_estimation_linear_y,orientation_x,orientation_y,orientation_z,orientation_w,angular_velocity_x,angular_velocity_y,angular_velocity_z,linear_acceleration_x,linear_acceleration_y,linear_acceleration_z,airspeed,groundspeed,throttle,altitude,climb
2018-07-21 01:02:29.003780365,42.3600006104,15.651327133199999,4.81999969482,13.7238178253,115.0,-69.9196472168,False,-0.458863489119,-2.67534995319,-0.276899844581,-0.225497933827,-0.921915675043,-0.150162065856,0.16494797170199998,-0.48987719416599995,-0.114016935229,-0.10787315,1.10815145,16.34768555,22.1822185516,19.5370883942,0.0,404.639984131,6.914179801939999
2018-07-21 01:02:29.071279287,41.8499984741,15.651327133199999,6.42999982834,13.7238178253,116.0,-69.9196472168,False,-0.465280848866543,-2.6732322461294693,-0.28307150265632186,-0.22801620118397592,-0.9179331362007617,-0.15683095917039508,0.12972477807053628,-0.4646414559653228,-0.14616560285718477,-0.1548872420884521,1.1656131181081082,15.880156523120394,22.070373395477738,19.324225116915972,0.0,404.94760542742165,7.149367076113267
2018-07-21 01:02:29.102360249,41.5,15.651327133199999,6.46999979019,13.7238178253,116.0,-69.9196472168,False,-0.471698208614086,-2.6711145390689386,-0.28924316073164374,-0.23053446854095186,-0.9139505973585234,-0.16349985248479018,0.09450158443907261,-0.43940571776464565,-0.17831427048536952,-0.2019013341769042,1.2230747862162161,15.412627496240788,21.958528239355477,19.111361839631943,0.0,405.25522672384324,7.3845543502865345
2018-07-21 01:02:29.157768965,40.9899978638,15.651327133199999,8.02999973297,13.7238178253,117.0,-69.9196472168,False,-0.478115568361629,-2.668996832008408,-0.29541481880696563,-0.23305273589792777,-0.909968058516285,-0.17016874579918526,0.059278390807608924,-0.4141699795639685,-0.2104629381135543,-0.2489154262653563,1.2805364543243243,14.94509846936118,21.84668308323322,18.89849856234791,0.0,405.5628480202649,7.619741624459802
2018-07-21 01:02:29.201213360,40.6699981689,15.651327133199999,8.059999465939999,13.7238178253,117.0,-69.9196472168,False,-0.484532928109172,-2.666879124947877,-0.30158647688228746,-0.23557100325490368,-0.9059855196740467,-0.17683763911358033,0.024055197176145238,-0.38893424136329136,-0.24261160574173907,-0.2959295183538084,1.3379981224324324,14.477569442481572,21.73483792711096,18.68563528506388,0.0,405.8704693166865,7.85492889863307
2018-07-21 01:02:29.248283863,40.2099990845,15.651327133199999,6.55999994278,13.7238178253,136.0,-69.9196472168,False,-0.490950287856715,-2.6647614178873464,-0.30775813495760934,-0.2380892706118796,-0.9020029808318084,-0.18350653242797543,-0.011167996455318463,-0.3636985031626142,-0.2747602733699238,-0.34294361044226046,1.3954597905405404,14.010040415601965,21.6229927709887,18.472772007779852,0.0,406.1780906131081,8.090116172806338
2018-07-21 01:02:29.301613331,39.9300003052,33.812553405799996,6.579999923709999,26.284851074200002,136.0,-63.3791427612,False,-0.497367647604258,-2.6626437108268157,-0.3139297930329312,-0.24060753796885553,-0.8980204419895701,-0.1901754257423705,-0.046391190086782136,-0.3384627649619371,-0.3069089409981086,-0.3899577025307126,1.4529214586486485,13.542511388722358,21.511147614866438,18.259908730495823,0.0,406.48571190952975,8.325303446979607
2018-07-21 01:02:29.375543356,39.5200004578,33.812553405799996,5.08999967575,26.284851074200002,136.0,-63.3791427612,False,-0.503785007351801,-2.660526003766285,-0.3201014511082531,-0.24312580532583145,-0.8940379031473318,-0.19684431905676558,-0.08161438371824581,-0.31322702676125996,-0.33905760862629336,-0.4369717946191647,1.5103831267567567,13.074982361842752,21.399302458744177,18.047045453211794,0.0,406.7933332059514,8.560490721152874
2018-07-21 01:02:29.416207790,39.4399986267,33.812553405799996,5.10999965668,26.284851074200002,136.0,-63.3791427612,False,-0.510202367099344,-2.6584082967057543,-0.32452239040010517,-0.24644629044723537,-0.889353841567231,-0.2058347582550678,-0.08410975904513326,-0.2902658205359804,-0.3613280719418172,-0.4551442158230958,1.4877290424078624,12.529260360565111,21.216220085315875,17.843195388917838,0.0,407.1493194950752,8.639856142139092
2018-07-21 01:02:29.474183083,39.25,33.812553405799996,3.5999999046300006,26.284851074200002,136.0,-63.3791427612,False,-0.5166197268468871,-2.6562905896452236,-0.32712679441286835,-0.2505991518956398,-0.8839418842140099,-0.21723401949832627,-0.05264694695824993,-0.2696646550069779,-0.37334896988029437,-0.44339069280098276,1.3819473352088452,11.902405799385749,20.959222403705358,17.648697380207565,0.0,407.5554890097096,8.557541745532728
2018-07-21 01:02:29.537261963,39.2000007629,33.812553405799996,3.61999988556,26.284851074200002,136.0,-63.3791427612,False,-0.5258535503450197,-2.649075993817985,-0.3297311984256315,-0.25475201334404424,-0.8785299268607887,-0.22863328074158476,-0.021184134871366583,-0.24906348947797544,-0.3853698678187715,-0.4316371697788698,1.276165628009828,11.275551238206388,20.70222472209484,17.454199371497296,0.0,407.961658524344,8.475227348926364
2018-07-21 01:02:29.576357841,39.1899986267,33.812553405799996,2.04999995232,26.284851074200002,136.0,-63.3791427612,False,-0.5350998914598216,-2.6418387451517837,-0.3323356024383946,-0.25890487479244867,-0.8731179695075676,-0.24003254198484325,0.010278677215516757,-0.22846232394897298,-0.3973907657572487,-0.41988364675675677,1.1703839208108107,10.648696677027027,20.445227040484326,17.259701362787027,0.0,408.3678280389784,8.39291295232
2018-07-21 01:02:29.629877567,39.2000007629,40.0989837646,2.06999993324,28.6066226959,136.0,-54.0639610291,False,-0.5443462325746236,-2.6346014964855824,-0.33494000645115773,-0.26305773624085305,-0.8677060121543465,-0.2514318032281017,0.0417414893024001,-0.2078611584199705,-0.40941166369572585,-0.40813012373464375,1.0646022136117934,10.021842115847665,20.18822935887381,17.065203354076758,0.0,408.7739975536128,8.310598555713636
2018-07-21 01:02:29.678296328,39.25,40.0989837646,0.449999988079,28.6066226959,136.0,-54.0639610291,False,-0.5535925736894256,-2.627364247819381,-0.33754441046392086,-0.2672105976892575,-0.8622940548011253,-0.2628310644713602,0.07320430138928344,-0.18725999289096804,-0.42143256163420295,-0.3963766007125307,0.9588205064127764,9.394987554668305,19.93123167726329,16.870705345366485,0.0,409.18016706824716,8.228284159107274
2018-07-21 01:02:29.744660854,39.3600006104,40.0989837646,0.48999997973399995,28.6066226959,136.0,-54.0639610291,False,-0.5628389148042275,-2.6201269991531793,-0.340148814476684,-0.2713634591376619,-0.8568820974479042,-0.2742303257146187,0.10466711347616678,-0.16665882736196558,-0.4334534595726801,-0.3846230776904177,0.8530387992137591,8.768132993488944,19.674233995652777,16.676207336656216,0.0,409.5863365828816,8.14596976250091
2018-07-21 01:02:29.798271894,39.5200004578,40.0989837646,-1.14999997616,28.6066226959,136.0,-54.0639610291,False,-0.5720852559190295,-2.612889750486978,-0.3427532184894472,-0.27551632058606634,-0.851470140094683,-0.28562958695787716,0.13612992556305012,-0.14605766183296312,-0.44547435751115727,-0.3728695546683047,0.747257092014742,8.141278432309583,19.41723631404226,16.481709327945946,0.0,409.99250609751596,8.063655365894546
2018-07-21 01:02:29.847547531,39.719997406,40.0989837646,-2.82999992371,28.6066226959,136.0,-54.0639610291,False,-0.5813315970338314,-2.6056525018207766,-0.3422781412815184,-0.2800668909354349,-0.8459226297292761,-0.29625827937362315,0.11158999354755389,-0.13861418569235673,-0.4490234519836895,-0.36111603164619166,0.7042861347420147,7.9938365338329245,19.02209578566064,16.380321010589483,0.0,410.26534627774646,7.92062675045345
2018-07-21 01:02:29.901634455,39.8699989319,40.0989837646,-2.8099999427799998,28.6066226959,136.0,-54.0639610291,False,-0.5905779381486334,-2.598415253154575,-0.3417451790882383,-0.2846249370160246,-0.8403725713749184,-0.30687248741291206,0.0859973783722385,-0.13141803454025405,-0.45241330203017005,-0.34936250862407864,0.6624958306633906,7.855406151572482,18.62435858722693,16.280682875401325,0.0,410.5356802674806,7.776456890297416
2018-07-21 01:02:29.937782764,40.0299987793,40.0989837646,-2.78999996185,28.6066226959,136.0,-54.0639610291,False,-0.5998242792634354,-2.591178004488374,-0.34121221689495823,-0.2891829830966143,-0.8348225130205607,-0.317486695452201,0.06040476319692313,-0.12422188338815134,-0.4558031520766506,-0.3376089856019656,0.6207055265847665,7.7169757693120395,18.22662138879322,16.18104474021317,0.0,410.80601425721477,7.632287030141381
2018-07-21 01:02:29.979791164,40.2000007629,40.0989837646,-4.56999969482,28.6066226959,136.0,-54.0639610291,False,-0.6035636080012349,-2.586233952493543,-0.34067925470167815,-0.2937410291772039,-0.8292724546662029,-0.32810090349148996,0.034812148021607744,-0.11702573223604865,-0.45919300212313124,-0.32585546257985254,0.5789152225061425,7.578545387051597,17.82888419035951,16.081406605025013,0.0,411.0763482469489,7.488117169985347
2018-07-21 01:02:30.036377668,40.3699989319,40.0989837646,-4.53999996185,28.6066226959,136.0,-54.0639610291,False,-0.6072537669856682,-2.581310375468993,-0.340146292508398,-0.2982990752577936,-0.8237223963118452,-0.3387151115307789,0.009219532846292372,-0.10982958108394594,-0.4625828521696118,-0.3141019395577395,0.5371249184275184,7.440115004791155,17.4311469919258,15.981768469836856,0.0,411.3466822366831,7.343947309829312
2018-07-21 01:02:30.055992126,40.5599975586,47.3367881775,-6.3699998855599995,25.223522186300002,136.0,-41.6799468994,False,-0.6109439259701017,-2.5763867984444424,-0.3396133303151179,-0.3028571213383833,-0.8181723379574874,-0.34932931957006785,-0.016373082329023014,-0.10263342993184324,-0.4659727022160924,-0.3023484165356265,0.49533461434889425,7.301684622530713,17.03340979349209,15.882130334648698,0.0,411.6170162264172,7.199777449673278
2018-07-21 01:02:30.111398220,40.7399978638,47.3367881775,-6.2999997139,25.223522186300002,136.0,-41.6799468994,False,-0.6146340849545351,-2.5714632214198923,-0.33908036812183784,-0.30741516741897296,-0.8126222796031297,-0.3599435276093568,-0.0419656975043384,-0.09543727877974054,-0.46936255226257295,-0.2905948935135135,0.4535443102702702,7.163254240270271,16.63567259505838,15.782492199460542,0.0,411.8873502161514,7.055607589517244
2018-07-21 01:02:30.169848204,41.1299972534,47.3367881775,-8.199999809269999,25.223522186300002,136.0,-41.6799468994,False,-0.6183242439389686,-2.5665396443953417,-0.3373578968978747,-0.3103964559390162,-0.8081260066225863,-0.36943009412682953,-0.06055563073190891,-0.08681592732227449,-0.47386869895072037,-0.2899443295085995,0.4413618969041769,6.966841738697789,16.336611158673612,15.704654142493908,0.0037739556896015784,412.0784305204212,6.8516361131143295
2018-07-21 01:02:30.227058172,41.219997406,47.3367881775,-8.18999958038,25.223522186300002,136.0,-41.6799468994,False,-0.6220144029234019,-2.561616067370791,-0.33430652105369535,-0.3116162106218865,-0.8048070094893509,-0.3776568736316482,-0.0713222552209832,-0.07660235989866034,-0.47962195829322996,-0.3016978525307125,0.4622570489434889,6.705652338206388,16.1477890502029,15.651170860415382,0.011764127501179908,412.1809695979612,6.580855018560605
2018-07-21 01:02:30.267550707,41.5999984741,47.3367881775,-10.2399997711,25.223522186300002,136.0,-41.6799468994,False,-0.6257045619078354,-2.556692490346241,-0.331255145209516,-0.31283596530475677,-0.8014880123561154,-0.38588365313646683,-0.08208887971005752,-0.06638879247504618,-0.48537521763573954,-0.31345137555282554,0.483152200982801,6.444462937714987,15.958966941732188,15.597687578336856,0.01975429931275824,412.28350867550125,6.31007392400688
2018-07-21 01:02:30.310430288,41.7000007629,47.3367881775,-10.2299995422,25.223522186300002,136.0,-41.6799468994,False,-0.6293947208922688,-2.5517689133216903,-0.32820376936533663,-0.31405571998762705,-0.7981690152228801,-0.39411043264128554,-0.0928555041991318,-0.056175225051432034,-0.49112847697824913,-0.32520489857493856,0.504047353022113,6.183273537223586,15.770144833261476,15.54420429625833,0.02774447112433657,412.3860477530413,6.039292829453155
2018-07-21 01:02:30.357367992,41.9799995422,47.3367881775,-12.359999656700001,25.223522186300002,136.0,-41.6799468994,False,-0.6330848798767023,-2.54684533629714,-0.32515239352115727,-0.3152754746704973,-0.7948500180896447,-0.4023372121461042,-0.10362212868820611,-0.045961657627817884,-0.49688173632075866,-0.3369584215970516,0.524942505061425,5.922084136732186,15.581322724790763,15.490721014179805,0.0357346429359149,412.48858683058137,5.76851173489943
2018-07-21 01:02:30.411981821,42.1699981689,47.3367881775,-12.359999656700001,25.223522186300002,136.0,-41.6799468994,False,-0.6355114795577003,-2.543046215054472,-0.3221010176769779,-0.3164952293533676,-0.7915310209564094,-0.41056399165092283,-0.11438875317728041,-0.03574809020420373,-0.5026349956632683,-0.34871194461916466,0.5458376571007371,5.6608947362407855,15.39250061632005,15.437237732101279,0.04372481474749323,412.5911259081214,5.497730640345705
2018-07-21 01:02:30.471984625,42.5400009155,52.3362922668,-14.630000114400001,18.7924442291,136.0,-32.1081619263,False,-0.6379210806830466,-2.5392622210196314,-0.31904964183279855,-0.3177149840362379,-0.7882120238231739,-0.41879077115574154,-0.1251553776663547,-0.025534522780589583,-0.5083882550057778,-0.3604654676412776,0.5667328091400492,5.399705335749385,15.203678507849338,15.383754450022753,0.05171498655907156,412.6936649856614,5.22694954579198
2018-07-21 01:02:30.497437239,42.6399993896,52.3362922668,-14.630000114400001,18.7924442291,136.0,-32.1081619263,False,-0.6403306818083931,-2.5354782269847913,-0.3159982659886192,-0.31893473871910816,-0.7848930266899385,-0.4270175506605602,-0.13592200215542902,-0.015320955356975419,-0.5141415143482874,-0.3722189906633907,0.5876279611793612,5.138515935257985,15.014856399378626,15.330271167944227,0.05970515837064989,412.7962040632015,4.956168451238256
2018-07-21 01:02:30.548432589,42.9300003052,52.3362922668,-15.339999198900001,18.7924442291,136.0,-32.1081619263,False,-0.6427402829337395,-2.5316942329499508,-0.3121071093227946,-0.32100528286490077,-0.7796348391209685,-0.436805124058146,-0.1274061021078002,-0.021364475122220644,-0.52421918527508,-0.3550441009336609,0.5758214292383292,5.237045058550368,14.890272993848797,15.291827126441229,0.0741081071683325,412.8512892214305,4.609342386329178
2018-07-21 01:02:30.625100851,43.2000007629,52.3362922668,-15.339999198900001,18.7924442291,136.0,-32.1081619263,False,-0.645149884059086,-2.5279102389151102,-0.30818377714656214,-0.32310842430812337,-0.7743023530678708,-0.44665249798802165,-0.11815140801661955,-0.02803087179125357,-0.5344625424694698,-0.3367608428992629,0.5627619592137592,5.349356500761671,14.768150841305209,15.253959301052236,0.08875675623368193,412.90455622183146,4.259602721023346
2018-07-21 01:02:30.671548128,43.469997406000005,52.3362922668,-15.369999885599999,18.7924442291,136.0,-32.1081619263,False,-0.6475594851844324,-2.52412624488027,-0.3042604449703297,-0.32521156575134597,-0.768969867014773,-0.4564998719178973,-0.10889671392543893,-0.03469726846028649,-0.5447058996638594,-0.3184775848648648,0.5497024891891892,5.461667942972973,14.646028688761623,15.216091475663243,0.10340540529903136,412.95782322223243,3.909863055717513
2018-07-21 01:02:30.715466499,43.6299972534,52.238021850600006,-15.4099998474,12.8959951401,136.0,-26.518558502199998,False,-0.6499690863097788,-2.5203422508454296,-0.30033711279409725,-0.32731470719456857,-0.7636373809616751,-0.466347245847773,-0.09964201983425829,-0.04136366512931942,-0.5549492568582491,-0.3001943268304668,0.5366430191646192,5.573979385184275,14.523906536218036,15.17822365027425,0.11805405436438081,413.0110902226334,3.56012339041168
2018-07-21 01:02:30.815604687,44.0099983215,52.238021850600006,-15.5,12.8959951401,136.0,-26.518558502199998,False,-0.6523786874351253,-2.5165582568105895,-0.29641378061786483,-0.32941784863779117,-0.7583048949085773,-0.4761946197776487,-0.09038732574307765,-0.048030061798352335,-0.5651926140526389,-0.28191106879606875,0.5235835491400491,5.6862908273955775,14.401784383674448,15.140355824885258,0.13270270342973023,413.0643572230344,3.2103837251058467
2018-07-21 01:02:30.871736526,44.1399993896,52.238021850600006,-15.4799995422,12.8959951401,136.0,-26.518558502199998,False,-0.6547882885604717,-2.512774262775749,-0.2924904484416324,-0.33152099008101377,-0.7529724088554796,-0.4860419937075244,-0.081132631651897,-0.05469645846738526,-0.5754359712470285,-0.26362781076167074,0.5105240791154791,5.79860226960688,14.27966223113086,15.102487999496265,0.1473513524950797,413.1176242234354,2.860644059800014
2018-07-21 01:02:30.901998520,44.270000457799995,52.238021850600006,-15.4399995804,12.8959951401,136.0,-26.518558502199998,False,-0.6571525225525818,-2.5066762007310905,-0.28856711626539994,-0.33362413152423637,-0.7476399228023818,-0.49588936763740005,-0.07187793756071637,-0.06136285513641818,-0.5856793284414182,-0.2453445527272727,0.49746460909090906,5.910913711818182,14.157540078587273,15.064620174107272,0.1620000015604291,413.1708912238364,2.510904394494181
2018-07-21 01:02:31.020729065,44.5499992371,52.238021850600006,-15.3899993896,12.8959951401,136.0,-26.518558502199998,False,-0.6595159391188677,-2.5005364437673365,-0.28467986898563535,-0.33571574314286884,-0.7407156245723916,-0.5067656010203966,-0.06445599983304363,-0.06920259151182477,-0.591796917704227,-0.22113393375921372,0.4820341946928747,6.006035807321867,14.051963897999165,15.03997709058216,0.17302211462999512,413.18124473586295,2.1414497278515254
2018-07-21 01:02:31.077055454,44.6499977112,52.0970993042,-15.4099998474,5.22086858749,136.0,-19.5587444305,False,-0.6618793556851538,-2.494396686803582,-0.2808360409308889,-0.3377934814766285,-0.7318759751051651,-0.5188798116315386,-0.05923932992487636,-0.07845415127376226,-0.5929501683176541,-0.18979120570024566,0.46375093665847666,6.080474786461917,13.966296691796511,15.031246704584325,0.17968059089162655,413.1399625057804,1.7482729457791975
2018-07-21 01:02:31.116836071,44.7000007629,52.0970993042,-15.429999351500001,5.22086858749,136.0,-19.5587444305,False,-0.6642427722514398,-2.488256929839828,-0.27699221287614245,-0.33987121981038826,-0.7230363256379385,-0.5309940222426807,-0.05402266001670909,-0.08770571103569975,-0.5941034189310811,-0.15844847764127762,0.4454676786240786,6.1549137656019655,13.880629485593857,15.022516318586487,0.186339067153258,413.0986802756978,1.3550961637068693
2018-07-21 01:02:31.169487953,44.7399978638,52.0970993042,-15.449999809300001,5.22086858749,136.0,-19.5587444305,False,-0.6666061888177258,-2.4821171728760736,-0.27314838482139603,-0.34194895814414794,-0.714196676170712,-0.5431082328538227,-0.04880599010854182,-0.09695727079763725,-0.5952566695445082,-0.12710574958230952,0.42718442058968054,6.229352744742015,13.794962279391205,15.013785932588648,0.19299754341488945,413.05739804561523,0.961919381634541
2018-07-21 01:02:31.189750433,44.7599983215,52.0970993042,-15.4799995422,5.22086858749,136.0,-19.5587444305,False,-0.6689696053840118,-2.4759774159123196,-0.2693045567666496,-0.3440266964779076,-0.7053570267034854,-0.5552224434649646,-0.043589320200374544,-0.10620883055957475,-0.5964099201579351,-0.09576302152334148,0.4089011625552825,6.303791723882064,13.709295073188551,15.00505554659081,0.1996560196765209,413.0161158155327,0.5687425995622128
2018-07-21 01:02:31.260004281,44.770000457799995,52.0970993042,-15.5099992752,5.22086858749,136.0,-19.5587444305,False,-0.6713330219502979,-2.469837658948565,-0.2654607287119031,-0.34610443481166736,-0.696517377236259,-0.5673366540761067,-0.03837265029220727,-0.11546039032151223,-0.5975631707713622,-0.06442029346437342,0.3906179045208845,6.378230703022114,13.623627866985897,14.996325160592974,0.20631449593815235,412.97483358545014,0.17556581748988442
2018-07-21 01:02:31.308579922,44.770000457799995,52.0970993042,-15.519999504100001,5.22086858749,136.0,-19.5587444305,False,-0.6736964385165839,-2.4636979019848106,-0.2616169006571567,-0.34818217314542704,-0.6876777277690324,-0.5794508646872487,-0.033155980384039996,-0.12471195008344974,-0.5987164213847892,-0.03307756540540535,0.37233464648648645,6.4526696821621625,13.537960660783243,14.987594774595136,0.21297297219978378,412.93355135536757,-0.21761096458244378
2018-07-21 01:02:31.376249790,44.719997406000005,52.0970993042,-15.539999961900001,5.22086858749,136.0,-19.5587444305,False,-0.6760598550828699,-2.4575581450210566,-0.2577730726024103,-0.3502599114791868,-0.6788380783018059,-0.5915650752983908,-0.027939310475872718,-0.13396350984538724,-0.5998696719982163,-0.0017348373464373124,0.3540513884520884,6.527108661302211,13.452293454580591,14.978864388597298,0.21963144846141525,412.892269125285,-0.610787746654772
2018-07-21 01:02:31.434124231,44.680000305200004,51.4540901184,-15.579999923699999,-3.7600145339999997,136.0,-9.56678295135,False,-0.6775217275585087,-2.4517842131941228,-0.25397497812858966,-0.34896340247247665,-0.6674765120279749,-0.6050824937997421,-0.044926948292587254,-0.1473002842079671,-0.6037174073130487,0.027140566486486526,0.3160295366093365,6.797699916412777,13.467877424086241,15.008256531206438,0.21496805882584766,412.7188999786108,-0.9158557217885568
2018-07-21 01:02:31.471188784,44.5999984741,51.4540901184,-15.6899995804,-3.7600145339999997,136.0,-9.56678295135,False,-0.6789632031090198,-2.446018557953995,-0.2501795633567764,-0.34746918366066093,-0.655967177191257,-0.6186821315134103,-0.06321561976505653,-0.16087642661355334,-0.6077230225908541,0.05587140054054058,0.2768511265356265,7.07978446894349,13.48939407966855,15.039882415726144,0.20964127861036608,412.53779136416756,-1.2157610715157863
2018-07-21 01:02:31.525042772,44.5399971008,51.4540901184,-15.789999961900001,-3.7600145339999997,136.0,-9.56678295135,False,-0.6804046786595308,-2.4402529027138673,-0.2463841485849631,-0.3459749648488452,-0.6444578423545391,-0.6322817692270787,-0.08150429123752582,-0.17445256901913958,-0.6117286378686595,0.08460223459459464,0.2376727164619164,7.361869021474202,13.51091073525086,15.071508300245847,0.20431449839488453,412.35668274972437,-1.515666421243016
2018-07-21 01:02:31.578214645,44.4399986267,51.4540901184,-15.960000038099999,-3.7600145339999997,136.0,-9.56678295135,False,-0.6818461542100418,-2.4344872474737396,-0.24258873381314985,-0.3444807460370295,-0.6329485075178212,-0.645881406940747,-0.09979296270999512,-0.18802871142472583,-0.6157342531464649,0.11333306864864869,0.19849430638820634,7.643953574004915,13.532427390833169,15.103134184765553,0.19898771817940294,412.1755741352811,-1.8155717709702457
2018-07-21 01:02:31.624602318,44.36999893189999,51.4540901184,-16.079999923699997,-3.7600145339999997,136.0,-9.56678295135,False,-0.6832876297605529,-2.428721592233612,-0.2387933190413366,-0.3429865272252137,-0.6214391726811032,-0.6594810446544153,-0.11808163418246441,-0.20160485383031207,-0.6197398684242703,0.14206390270270275,0.15931589631449625,7.9260381265356274,13.553944046415479,15.134760069285258,0.19366093796392136,411.9944655208379,-2.115477120697475
2018-07-21 01:02:31.675687790,44.25,51.4540901184,-16.3099994659,-3.7600145339999997,136.0,-9.56678295135,False,-0.6847291053110639,-2.4229559369934837,-0.23499790426952333,-0.341492308413398,-0.6099298378443853,-0.6730806823680836,-0.1363703056549337,-0.21518099623589831,-0.6237454837020757,0.1707947367567568,0.12013748624078618,8.20812267906634,13.575460701997788,15.166385953804962,0.1883341577484398,411.81335690639463,-2.4153824704247047
2018-07-21 01:02:31.699192047,44.2099990845,51.4540901184,-16.3899993896,-3.7600145339999997,136.0,-9.56678295135,False,-0.686170580861575,-2.417190281753356,-0.23120248949771005,-0.3399980896015823,-0.5984205030076674,-0.686680320081752,-0.15465897712740298,-0.22875713864148456,-0.6277510989798811,0.19952557081081085,0.0809590761670761,8.490207231597052,13.596977357580098,15.198011838324668,0.18300737753295823,411.6322482919514,-2.7152878201519344
2018-07-21 01:02:31.755862474,44.069999694799996,51.4540901184,-16.6299991608,-3.7600145339999997,136.0,-9.56678295135,False,-0.687612056412086,-2.411424626513228,-0.22832176044363242,-0.3372367938139847,-0.586173628437827,-0.6996311820561308,-0.15239069611587427,-0.2428849858568821,-0.6219759174884049,0.2089226064373464,0.06338902904176906,8.800155199508602,13.683761824410073,15.244384542045651,0.17304177570223644,411.41402826302954,-3.0188778873694653
2018-07-21 01:02:31.810744762,43.979999542200005,51.4540901184,-16.8099994659,-3.7600145339999997,136.0,-9.56678295135,False,-0.6890535319625971,-2.4056589712731005,-0.22662702219305947,-0.3328325931340599,-0.5729704523496162,-0.7117408348092276,-0.12346806145983982,-0.25772817913923834,-0.6035188554401484,0.19325124240786237,0.07383660506142509,9.146231155159706,13.855173199044225,15.309878121510662,0.15706143059073713,411.14768919669046,-3.327245596756625
2018-07-21 01:02:31.851040363,43.829998016400005,47.2579269409,-17.1000003815,-11.5263328552,136.0,4.05006170273,False,-0.6891844480364595,-2.3969430809908103,-0.2249322839424865,-0.3284283924541351,-0.5597672762614054,-0.7238504875623244,-0.09454542680380537,-0.2725713724215946,-0.5850617933918919,0.17757987837837833,0.0842841810810811,9.492307110810811,14.02658457367838,15.375371700975675,0.1410810854792378,410.8813501303514,-3.6356133061437848
2018-07-21 01:02:31.912244797,43.7399978638,47.2579269409,-17.2799987793,-11.5263328552,136.0,4.05006170273,False,-0.6892796215791406,-2.388146729752825,-0.2232375456919135,-0.32402419177421027,-0.5465641001731946,-0.7359601403154212,-0.06562279214777092,-0.2874145657039509,-0.5666047313436353,0.1619085143488943,0.09473175710073711,9.838383066461917,14.197995948312531,15.440865280440688,0.12510074036773852,410.6150110640123,-3.9439810155309445
2018-07-21 01:02:31.937617302,43.6499977112,47.2579269409,-17.4699993134,-11.5263328552,136.0,4.05006170273,False,-0.6893747951218216,-2.37935037851484,-0.22154280744134056,-0.31961999109428546,-0.5333609240849838,-0.748069793068518,-0.03670015749173647,-0.30225775898630713,-0.5481476692953788,0.1462371503194103,0.10517933312039314,10.184459022113023,14.369407322946683,15.506358859905701,0.1091203952562392,410.34867199767325,-4.252348724918104
2018-07-21 01:02:32.009534121,43.4899978638,47.2579269409,-17.8699989319,-11.5263328552,136.0,4.05006170273,False,-0.6894699686645027,-2.370554027276855,-0.21984806919076758,-0.31521579041436065,-0.520157747996773,-0.7601794458216148,-0.0077775228357020165,-0.3171009522686634,-0.5296906072471224,0.13056578628992627,0.11562690914004917,10.530534977764129,14.540818697580836,15.571852439370712,0.09314005014473989,410.0823329313342,-4.560716434305263
2018-07-21 01:02:32.067469358,43.4199981689,47.2579269409,-18.0399990082,-11.5263328552,136.0,4.05006170273,False,-0.6895651422071838,-2.3617576760388697,-0.2181533309401946,-0.31081158973443584,-0.5069545719085621,-0.7722890985747115,0.021145111820332435,-0.3319441455510197,-0.5112335451988659,0.11489442226044223,0.12607448515970518,10.876610933415233,14.712230072214988,15.637346018835725,0.07715970503324057,409.8159938649951,-4.869084143692423
2018-07-21 01:02:32.092298508,43.3499984741,47.2579269409,-18.1999988556,-11.5263328552,136.0,4.05006170273,False,-0.6896603157498649,-2.352961324800884,-0.21645859268962164,-0.30640738905451104,-0.4937513958203513,-0.7843987513278083,0.05006774647636689,-0.346787338833376,-0.4927764831506093,0.0992230582309582,0.1365220611793612,11.222686889066338,14.88364144684914,15.702839598300738,0.061179359921741255,409.54965479865604,-5.1774518530795826
2018-07-21 01:02:32.135932922,43.2900009155,47.2579269409,-18.3400001526,-11.5263328552,136.0,4.05006170273,False,-0.6897554892925459,-2.344164973562899,-0.2228638152578826,-0.30285660000643194,-0.4808375282065272,-0.7910613634742751,0.0585132721564754,-0.3572138512159381,-0.47121011815410363,0.10653347004914007,0.17720881594594606,11.41393824953317,14.9166933064515,15.762604358674743,0.05506633783551871,409.2709808272295,-5.1659085735306975
2018-07-21 01:02:32.178951502,43.25,47.2579269409,-18.4599990845,-11.5263328552,136.0,4.05006170273,False,-0.689850662835227,-2.3353686223249137,-0.2299144530308315,-0.29937381188519313,-0.4679467130607817,-0.7972899484807715,0.06532715568710779,-0.3672884368335765,-0.4493959999346299,0.1156750990663391,0.22030506702702718,11.59285298886978,14.938720503501523,15.821912639439901,0.04973955662780426,408.99132399483983,-5.128874378528741
2018-07-21 01:02:32.248894930,43.2000007629,47.2579269409,-18.5900001526,-11.5263328552,136.0,4.05006170273,False,-0.6899458363779081,-2.3265722710869285,-0.2369650908037804,-0.29589102376395426,-0.4550558979150363,-0.8035185334872679,0.07214103921774018,-0.37736302245121484,-0.4275818817151562,0.12481672808353814,0.2634013181081083,11.771767728206388,14.960747700551547,15.881220920205061,0.044412775420089805,408.7116671624501,-5.091840183526786
2018-07-21 01:02:32.273040056,43.180000305200004,41.7355766296,-18.1800003052,-15.51674366,136.0,19.836479187000002,False,-0.6887762992382387,-2.320453828071032,-0.2440157285767293,-0.29240823564271545,-0.44216508276929084,-0.8097471184937642,0.07895492274837257,-0.38743760806885313,-0.40576776349568244,0.13395835710073717,0.30649756918918947,11.950682467542999,14.982774897601573,15.940529200970222,0.03908599421237535,408.43201033006045,-5.054805988524831
2018-07-21 01:02:32.316880226,43.1699981689,41.7355766296,-18.1800003052,-15.51674366,136.0,19.836479187000002,False,-0.6875663375562112,-2.3144209802951106,-0.25106636634967816,-0.28892544752147664,-0.42927426762354537,-0.8159757035002605,0.08576880627900496,-0.3975121936864915,-0.3839536452762087,0.14309998611793617,0.3495938202702705,12.129597206879607,15.004802094651597,15.99983748173538,0.03375921300466089,408.1523534976708,-5.017771793522875
2018-07-21 01:02:32.352443218,43.1699981689,41.7355766296,-16.8899993896,-15.51674366,136.0,19.836479187000002,False,-0.6863563758741837,-2.3083881325191893,-0.25811700412262706,-0.28544265940023783,-0.4163834524777999,-0.8222042885067569,0.09258268980963735,-0.40758677930412984,-0.36213952705673497,0.1522416151351352,0.3926900713513517,12.308511946216218,15.02682929170162,16.05914576250054,0.02843243179694644,407.87269666528107,-4.9807375985209195
2018-07-21 01:02:32.412975073,43.1899986267,41.7355766296,-16.8699989319,-15.51674366,136.0,19.836479187000002,False,-0.6851464141921562,-2.3023552847432676,-0.26516764189557596,-0.281959871278999,-0.4034926373320544,-0.8284328735132532,0.09939657334026974,-0.4176613649217682,-0.34032540883726126,0.16138324415233424,0.4357863224324328,12.487426685552826,15.048856488751646,16.1184540432657,0.023105650589231988,407.5930398328914,-4.943703403518963
2018-07-21 01:02:32.462986708,43.219997406000005,41.7355766296,-15.739999771099999,-15.51674366,136.0,19.836479187000002,False,-0.6839364525101287,-2.2963224369673463,-0.27025084747132483,-0.2776035855720452,-0.39233779229828886,-0.8340107895653239,0.09548819431581015,-0.4259269630877126,-0.3299549550771268,0.1716139655036856,0.4658134655036856,12.66579687872236,15.073260504163292,16.168225448238132,0.019999999553,407.33559396376853,-5.000961638316376
2018-07-21 01:02:32.494720459,43.25,41.7355766296,-15.7299995422,-15.51674366,136.0,19.836479187000002,False,-0.6827264908281012,-2.290289589191425,-0.27258313015187374,-0.2720259492585164,-0.38361023290782253,-0.8386789207076669,0.07658762517007209,-0.4316631805689878,-0.3355853772866875,0.18336748852579862,0.4775669885257986,12.843405671056512,15.100987858523046,16.20466210652693,0.019999999553,407.10920413177985,-5.190062385576616
2018-07-21 01:02:32.577773571,43.329998016400005,41.7355766296,-14.809999465899999,-15.51674366,136.0,19.836479187000002,False,-0.6815165291460736,-2.2842567414155037,-0.27491541283242266,-0.26644831294498766,-0.3748826735173562,-0.8433470518500099,0.057687056024334014,-0.43739939805026296,-0.3412157994962482,0.19512101154791164,0.4893205115479116,13.021014463390664,15.1287152128828,16.241098764815725,0.019999999553,406.88281429979116,-5.379163132836857
2018-07-21 01:02:32.616098404,43.36999893189999,41.7355766296,-14.7999992371,-15.51674366,136.0,19.836479187000002,False,-0.6803065674640462,-2.2782238936395824,-0.2772476955129715,-0.2608706766314589,-0.3661551141268899,-0.8480151829923529,0.038786486878595955,-0.44313561553153813,-0.34684622170580887,0.20687453457002464,0.5010740345700246,13.198623255724817,15.156442567242554,16.27753542310452,0.019999999553,406.6564244678024,-5.568263880097097
2018-07-21 01:02:32.672214508,43.409999847399995,43.8085517883,-14.079999923699999,-14.630374908399999,136.0,33.1911506653,False,-0.6790966057820187,-2.272191045863661,-0.27957997819352043,-0.2552930403179302,-0.35742755473642357,-0.8526833141346959,0.01988591773285789,-0.4488718330128133,-0.35247664391536954,0.21862805759213766,0.5128275575921376,13.376232048058968,15.184169921602308,16.313972081393317,0.019999999553,406.43003463581374,-5.757364627357338
2018-07-21 01:02:32.690281391,43.4500007629,43.8085517883,-14.079999923699999,-14.630374908399999,136.0,33.1911506653,False,-0.6777933905314791,-2.2672290414496854,-0.28191226087406934,-0.24971540400440145,-0.3486999953459572,-0.8573514452770389,0.000985348587119822,-0.4546080504940885,-0.35810706612493026,0.23038158061425068,0.5245810806142507,13.553840840393121,15.211897275962063,16.350408739682113,0.019999999553,406.20364480382506,-5.946465374617579
2018-07-21 01:02:32.760091305,43.5099983215,43.8085517883,-13.460000038099999,-14.630374908399999,136.0,33.1911506653,False,-0.6764867531316363,-2.262306334039818,-0.2842445435546182,-0.2441377676908727,-0.33997243595549087,-0.8620195764193819,-0.017915220558618244,-0.46034426797536365,-0.36373748833449093,0.24213510363636367,0.5363346036363636,13.731449632727273,15.239624630321817,16.38684539797091,0.019999999553,405.9772549718364,-6.135566121877819
2018-07-21 01:02:32.803558350,43.579998016400005,43.8085517883,-13.469999313399999,-14.630374908399999,136.0,33.1911506653,False,-0.6751801157317936,-2.257383626629951,-0.2865768262351671,-0.23856013137734394,-0.33124487656502455,-0.866687707561725,-0.03681578970435631,-0.4660804854566389,-0.3693679105440516,0.25388862665847667,0.5480881266584767,13.909058425061424,15.267351984681572,16.423282056259705,0.019999999553,405.7508651398477,-6.32466686913806
2018-07-21 01:02:32.865959644,43.61999893189999,43.8085517883,-12.8400001526,-14.630374908399999,136.0,33.1911506653,False,-0.6738734783319509,-2.2524609192200837,-0.28606766954202856,-0.23329990138517345,-0.3230695829668098,-0.8710274004174526,-0.04959033073388208,-0.45726506932674743,-0.37949055036360346,0.23956176157248155,0.5645835384275185,13.880395056904177,15.322516695340981,16.446842823471354,0.018791154371170064,405.5595328518737,-6.305232087865327
2018-07-21 01:02:32.918284655,43.680000305200004,43.8085517883,-12.859999656700001,-14.630374908399999,136.0,33.1911506653,False,-0.6725668409321082,-2.247538211810216,-0.28526974868489735,-0.22807192813297836,-0.3149504139409784,-0.8753337153985244,-0.06174230793045947,-0.4469708286428757,-0.39006971636303245,0.22258445054054055,0.5815608494594595,13.830769070810812,15.380469755217836,16.46909506516703,0.01745945906923546,405.37176332243786,-6.264604671579081
2018-07-21 01:02:32.959108114,43.7099990845,42.193969726599995,-12.300000190699999,-12.902488708499998,136.0,43.2826576233,False,-0.6712602035322653,-2.242615504400349,-0.28447182782776614,-0.2228439548807833,-0.30683124491514696,-0.8796400303795961,-0.07389428512703686,-0.436676587959004,-0.40064888236246143,0.20560713950859952,0.5985381604914005,13.781143084717446,15.438422815094691,16.491347306862703,0.016127763767300858,405.18399379300195,-6.2239772552928345
2018-07-21 01:02:33.006449223,43.75,42.193969726599995,-12.309999465899999,-12.902488708499998,136.0,43.2826576233,False,-0.6699535661324226,-2.2376927969904816,-0.28367390697063494,-0.2176159816285882,-0.29871207588931553,-0.8839463453606679,-0.08604626232361424,-0.42638234727513225,-0.4112280483618904,0.1886298284766585,0.6155154715233415,13.73151709862408,15.496375874971548,16.51359954855838,0.014796068465366253,404.9962242635661,-6.183349839006589
2018-07-21 01:02:33.044731617,43.7799987793,42.193969726599995,-12.329999923699999,-12.902488708499998,136.0,43.2826576233,False,-0.6686469287325799,-2.2327700895806144,-0.28287598611350373,-0.21238800837639313,-0.29059290686348405,-0.8882526603417396,-0.09819823952019163,-0.4160881065912605,-0.4218072143613194,0.1716525174447175,0.6324927825552825,13.681891112530714,15.554328934848403,16.535851790254053,0.01346437316343165,404.80845473413024,-6.142722422720343
2018-07-21 01:02:33.078316689,43.809997558599996,42.193969726599995,-11.679999351500001,-12.902488708499998,136.0,43.2826576233,False,-0.6673402913327372,-2.2278473821707467,-0.2820780652563725,-0.20716003512419806,-0.2824737378376526,-0.8925589753228114,-0.110350216716769,-0.40579386590738875,-0.4323863803607484,0.15467520641277646,0.6494700935872235,13.632265126437348,15.612281994725258,16.55810403194973,0.012132677861497047,404.6206852046943,-6.102095006434098
2018-07-21 01:02:33.119172096,43.829998016400005,42.193969726599995,-11.6899995804,-12.902488708499998,136.0,43.2826576233,False,-0.6649594459189307,-2.223119726291081,-0.2812801443992413,-0.20193206187200297,-0.2743545688118212,-0.8968652903038831,-0.12250219391334641,-0.395499625223517,-0.4429655463601774,0.13769789538083543,0.6664474046191646,13.582639140343982,15.670235054602113,16.580356273645403,0.010800982559562444,404.43291567525847,-6.061467590147852
2018-07-21 01:02:33.206052065,43.8499984741,42.193969726599995,-11.1599998474,-12.902488708499998,136.0,43.2826576233,False,-0.6625340480990153,-2.218400160106216,-0.28151675073629584,-0.19677676905888603,-0.2651884700425342,-0.9007030445869184,-0.11747814113774117,-0.3915704365590339,-0.44835599892266487,0.11759787712530723,0.6490749361916465,13.565801580098281,15.716863929770762,16.59499363352506,0.010530712295332163,404.23771701258033,-6.002219182798629
2018-07-21 01:02:33.258426188,43.8799972534,38.7354354858,-10.5199995041,-11.903621673599998,136.0,52.4466133118,False,-0.6601086502790998,-2.2136805939213513,-0.2833147268201307,-0.19173116987141475,-0.25444228286414305,-0.9038336192979175,-0.08653100608930428,-0.3972477615904801,-0.4459153376868054,0.09278488407862415,0.5798597450614253,13.598450255159706,15.746401674314988,16.598138162515724,0.011862407597266767,404.03130586176803,-5.914866872271022
2018-07-21 01:02:33.307462931,43.8999977112,38.7354354858,-10.529999733,-11.903621673599998,136.0,52.4466133118,False,-0.6576832524591842,-2.2089610277364864,-0.2851127029039656,-0.1866855706839435,-0.24369609568575187,-0.9069641940089165,-0.0555838710408674,-0.4029250866219263,-0.44347467645094596,0.06797189103194108,0.5106445539312041,13.631098930221132,15.775939418859213,16.601282691506388,0.013194102899201374,403.8248947109558,-5.827514561743414
2018-07-21 01:02:33.351377964,43.9199981689,38.7354354858,-10.529999733,-11.903621673599998,136.0,52.4466133118,False,-0.6552578546392688,-2.2042414615516215,-0.2869106789878005,-0.18163997149647224,-0.2329499085073607,-0.9100947687199155,-0.024636735992430506,-0.40860241165337247,-0.4410340152150865,0.043158897985258016,0.4414293628009829,13.663747605282555,15.80547716340344,16.60442722049705,0.014525798201135979,403.6184835601435,-5.740162251215808
2018-07-21 01:02:33.385859251,43.9399986267,38.7354354858,-9.96999931335,-11.903621673599998,136.0,52.4466133118,False,-0.6528324568193533,-2.1995218953667566,-0.2887086550716354,-0.17659437230900096,-0.22220372132896954,-0.9132253434309145,0.006310399056006388,-0.41427973668481866,-0.43859335397922705,0.018345904938574936,0.3722141716707617,13.696396280343981,15.835014907947667,16.607571749487715,0.015857493503070585,403.41207240933124,-5.652809940688201
2018-07-21 01:02:33.436551571,43.979999542200005,38.7354354858,-9.96999931335,-11.903621673599998,136.0,52.4466133118,False,-0.6504070589994378,-2.1948023291818917,-0.29050663115547026,-0.17154877312152972,-0.21145753415057836,-0.9163559181419135,0.03725753410444327,-0.4199570617162649,-0.4361526927433676,-0.006467088108108143,0.3029989805405405,13.729044955405406,15.864552652491891,16.610716278478378,0.017189188805005192,403.20566125851894,-5.565457630160594
2018-07-21 01:02:33.473855972,44.0099983215,38.7354354858,-9.36999988556,-11.903621673599998,136.0,52.4466133118,False,-0.6479816611795224,-2.1900827629970268,-0.2923046072393052,-0.16650317393405845,-0.20071134697218718,-0.9194864928529125,0.06820466915288015,-0.42563438674771104,-0.43371203150750814,-0.031280081154791195,0.2337837894103193,13.761693630466832,15.894090397036118,16.61386080746904,0.0185208841069398,402.99925010770664,-5.478105319632987
2018-07-21 01:02:33.542928934,44.069999694799996,37.9317016602,-9.36999988556,-10.7132587433,136.0,63.1900062561,False,-0.6455562633596069,-2.1853631968121623,-0.29410258332314004,-0.16145757474658717,-0.18996515979379602,-0.9226170675639116,0.09915180420131703,-0.4313117117791573,-0.4312713702716487,-0.056093074201474274,0.16456859828009807,13.794342305528255,15.923628141580345,16.617005336459705,0.019852579408874402,402.7928389568944,-5.39075300910538
2018-07-21 01:02:33.623945475,44.1499977112,37.9317016602,-8.769999504089999,-10.7132587433,136.0,63.1900062561,False,-0.6415906418508658,-2.178868787066059,-0.29720251212584914,-0.1540593030505292,-0.17751052901835246,-0.9246884519757725,0.10697480103325409,-0.4347191993818197,-0.42324371201704913,-0.019353074398034235,0.17897256724815733,14.101076005356267,16.00964160982855,16.604905051129435,0.024737100184214714,402.56392628838086,-5.421885760588319
2018-07-21 01:02:33.642552614,44.1499977112,37.9317016602,-8.769999504089999,-10.7132587433,136.0,63.1900062561,False,-0.6375537136898644,-2.172292208636565,-0.3004645097317376,-0.14636816755672183,-0.164843228915475,-0.9266279869728029,0.11191927443575139,-0.437844134607455,-0.41452057695513755,0.025049123685503882,0.20378556029484038,14.441928172997544,16.10268525115194,16.59090707107042,0.030063881391929167,402.3322126010664,-5.467767689914894
2018-07-21 01:02:33.693351984,44.2399978638,37.9317016602,-8.11999988556,-10.7132587433,136.0,63.1900062561,False,-0.6335167855288629,-2.165715630207071,-0.3037265073376261,-0.13867703206291443,-0.15217592881259756,-0.9285675219698334,0.11686374783824868,-0.4409690698330904,-0.40579744189322603,0.06945132176904201,0.22859855334152346,14.782780340638823,16.19572889247533,16.5769090910114,0.03539066259964362,402.1004989137519,-5.513649619241469
2018-07-21 01:02:33.744911194,44.2999992371,37.9317016602,-7.480000019069999,-10.7132587433,136.0,63.1900062561,False,-0.6294798573678614,-2.1591390517775775,-0.3069885049435145,-0.13098589656910706,-0.13950862870972008,-0.9305070569668639,0.12180822124074599,-0.4440940050587258,-0.39707430683131445,0.11385351985258013,0.2534115463882065,15.1236325082801,16.28877253379872,16.562911110952385,0.040717443807358075,401.86878522643735,-5.559531548568044
2018-07-21 01:02:33.799598932,44.340000152600005,37.9317016602,-7.480000019069999,-10.7132587433,136.0,63.1900062561,False,-0.62544292920686,-2.1525624733480835,-0.31025050254940295,-0.12329476107529969,-0.12684132860684263,-0.9324465919638943,0.1267526946432433,-0.4472189402843612,-0.38835117176940287,0.15825571793611826,0.2782245394348896,15.464484675921378,16.38181617512211,16.548913130893364,0.04604422501507253,401.63707153912287,-5.605413477894619
2018-07-21 01:02:33.864736080,44.3999977112,37.9317016602,-6.769999980930001,-10.7132587433,136.0,63.1900062561,False,-0.6214060010458584,-2.1459858949185895,-0.3135125001552914,-0.11560362558149231,-0.11417402850396519,-0.9343861269609248,0.13169716804574058,-0.4503438755099966,-0.3796280367074913,0.20265791601965638,0.30303753248157267,15.805336843562657,16.474859816445502,16.534915150834347,0.05137100622278698,401.4053578518084,-5.651295407221194
2018-07-21 01:02:33.897821665,44.4399986267,38.5114440918,-6.75999975204,-7.68279981613,136.0,75.90342712399999,False,-0.617369072884857,-2.139409316489096,-0.3167744977611799,-0.10791249008768494,-0.10150672840108774,-0.9363256619579553,0.1366416414482379,-0.45346881073563194,-0.37090490164557977,0.2470601141031945,0.3278505255282558,16.146189011203933,16.567903457768892,16.52091717077533,0.05669778743050144,401.1736441644939,-5.697177336547769
2018-07-21 01:02:33.959478378,44.469997406000005,38.5114440918,-6.75,-7.68279981613,136.0,75.90342712399999,False,-0.6133321447238554,-2.132832738059602,-0.31887357783072084,-0.09983633451986887,-0.08862949391767823,-0.937984185855053,0.12511251517547875,-0.45511985907367614,-0.36643274625615035,0.2820315436117938,0.3556416560196563,16.349054143906635,16.639314297218966,16.498041558815085,0.06050614124800434,400.96369423429536,-5.6380196212819875
2018-07-21 01:02:34.006952286,44.5099983215,38.5114440918,-6.19000005722,-7.68279981613,136.0,75.90342712399999,False,-0.609295216562854,-2.126256159630108,-0.3190758603652486,-0.09113218504493181,-0.07540984219223588,-0.9391843615503189,0.08671382826735102,-0.45436689773098915,-0.36889422761407026,0.3016207486486488,0.38829033108108135,16.326853044864865,16.67544056662324,16.46068592588973,0.06183783679797785,400.7892424710433,-5.4075351070694575
2018-07-21 01:02:34.063169241,44.5499992371,38.5114440918,-5.67999982834,-7.68279981613,136.0,75.90342712399999,False,-0.6024346692858255,-2.1206263607515234,-0.3192781428997764,-0.08242803556999477,-0.06219019046679353,-0.9403845372455847,0.048315141359223296,-0.4536139363883022,-0.37135570897199016,0.3212099536855038,0.4209390061425064,16.304651945823096,16.711566836027515,16.423330292964373,0.06316953234795136,400.61479070779114,-5.177050592856927
2018-07-21 01:02:34.103953838,44.579998016400005,38.5114440918,-5.67999982834,-7.68279981613,136.0,75.90342712399999,False,-0.5954296577749537,-2.1150450017569384,-0.31948042543430416,-0.07372388609505773,-0.048970538741351176,-0.9415847129408506,0.009916454451095569,-0.45286097504561523,-0.3738171903299101,0.34079915872235883,0.45358768120393145,16.282450846781327,16.747693105431793,16.385974660039018,0.06450122789792487,400.44033894453906,-4.946566078644397
2018-07-21 01:02:34.137283325,44.6100006104,38.5114440918,-5.69000005722,-7.68279981613,136.0,75.90342712399999,False,-0.588424646264082,-2.109463642762354,-0.3196827079688319,-0.06501973662012069,-0.035750887015908825,-0.9427848886361164,-0.02848223245703216,-0.45210801370292825,-0.37627867168783,0.36038836375921385,0.48623635626535644,16.260249747739557,16.783819374836067,16.34861902711366,0.06583292344789839,400.265887181287,-4.716081564431866
2018-07-21 01:02:34.178717613,44.6299972534,38.5114440918,-5.25,-7.68279981613,136.0,75.90342712399999,False,-0.5814196347532102,-2.103882283767769,-0.31988499050335967,-0.05631558714518364,-0.02253123529046648,-0.9439850643313823,-0.06688091936515989,-0.45135505236024126,-0.3787401530457499,0.37997756879606887,0.5188850313267814,16.238048648697788,16.81994564424034,16.311263394188305,0.06716461899787189,400.09143541803485,-4.485597050219336
2018-07-21 01:02:34.240377665,44.6499977112,38.5114440918,-5.269999980930001,-7.68279981613,136.0,75.90342712399999,False,-0.5744146232423385,-2.0983009247731843,-0.3200872730378874,-0.0476114376702466,-0.009311583565024123,-0.9451852400266482,-0.10527960627328761,-0.4506020910175543,-0.38120163440366983,0.3995667738329239,0.5515337063882065,16.21584754965602,16.85607191364462,16.27390776126295,0.06849631454784541,399.91698365478277,-4.255112536006805
2018-07-21 01:02:34.273173094,44.6699981689,37.421672821,-4.900000095369999,-4.30834341049,136.0,89.2200012207,False,-0.5674096117314668,-2.0927195657785993,-0.32028955557241523,-0.03890728819530956,0.003908068160418221,-0.946385415721914,-0.14367829318141534,-0.4498491296748673,-0.38366311576158973,0.4191559788697789,0.5841823814496315,16.193646450614253,16.892198183048894,16.236552128337593,0.06982801009781892,399.7425318915307,-4.024628021794275
2018-07-21 01:02:34.319864035,44.680000305200004,37.421672821,-4.900000095369999,-4.30834341049,136.0,89.2200012207,False,-0.560404600220595,-2.0871382067840147,-0.32139202367526926,-0.03272078497688917,0.01690523581987025,-0.9456047035062904,-0.11417323069733061,-0.4403908085030835,-0.3898446576157534,0.3773319418427517,0.562241508009828,15.934890641400491,16.9115119924858,16.191700709011844,0.07000000029799999,399.629544360027,-3.8709516501841423
2018-07-21 01:02:34.355095625,44.6899986267,37.421672821,-4.40999984741,-4.30834341049,136.0,89.2200012207,False,-0.5533995887097233,-2.0815568477894297,-0.32262799387512087,-0.026907661499901342,0.029869407961060992,-0.9445302155411704,-0.07459769690507906,-0.42964143820410317,-0.39657790335707177,0.32640000874692865,0.5322047269533169,15.641052565847666,16.928332428622458,16.14573762644875,0.07000000029799999,399.5256722866216,-3.728666316671823
2018-07-21 01:02:34.436308384,44.7000007629,37.421672821,-4.40999984741,-4.30834341049,136.0,89.2200012207,False,-0.5463945771988515,-2.075975488794845,-0.3238639640749725,-0.021094538022913507,0.04283358010225174,-0.9434557275760506,-0.035022163112827506,-0.41889206790512284,-0.4033111490983902,0.27546807565110565,0.5021679458968059,15.34721449029484,16.945152864759116,16.09977454388565,0.07000000029799999,399.4218002132162,-3.5863809831595037
2018-07-21 01:02:34.469547272,44.7000007629,37.421672821,-4.28999996185,-4.30834341049,136.0,89.2200012207,False,-0.5382985989347129,-2.0727432596765945,-0.3250999342748241,-0.015281414545925676,0.05579775224344248,-0.9423812396109307,0.004553370679424046,-0.4081426976061425,-0.4100443948397086,0.22453614255528256,0.4721311648402948,15.053376414742015,16.961973300895774,16.053811461322557,0.07000000029799999,399.31792813981076,-3.4440956496471844
2018-07-21 01:02:34.509675026,44.7099990845,37.421672821,-4.28999996185,-4.30834341049,136.0,89.2200012207,False,-0.5301414449647837,-2.0696427574672973,-0.32633590447467564,-0.009468291068937845,0.06876192438463323,-0.9413067516458108,0.044128904471675584,-0.39739332730716215,-0.41677764058102706,0.17360420945945954,0.4420943837837838,14.75953833918919,16.978793737032433,16.00784837875946,0.07000000029799999,399.21405606640536,-3.301810316134865
2018-07-21 01:02:34.562855482,44.7099990845,37.421672821,-4.30999994278,-4.30834341049,136.0,89.2200012207,False,-0.5219842909948544,-2.0665422552579997,-0.32757187467452725,-0.0036551675919500107,0.08172609652582397,-0.9402322636806909,0.08370443826392715,-0.3866439570081818,-0.42351088632234546,0.12267227636363648,0.41205760272727276,14.465700263636364,16.99561417316909,15.961885296196364,0.07000000029799999,399.11018399299996,-3.1595249826225458
2018-07-21 01:02:34.605497599,44.7099990845,37.421672821,-4.2999997139,-4.30834341049,136.0,89.2200012207,False,-0.5138271370249252,-2.0634417530487026,-0.32880784487437886,0.002157955885037817,0.09469026866701472,-0.939157775715571,0.12327997205617869,-0.3758945867092015,-0.4302441320636639,0.07174034326781342,0.38202082167076173,14.171862188083539,17.01243460930575,15.915922213633268,0.07000000029799999,399.00631191959457,-3.017239649110227
2018-07-21 01:02:34.678150892,44.4899978638,38.3780670166,-4.349999904630001,-3.25954461098,136.0,101.38788604700001,False,-0.505669983054996,-2.060341250839405,-0.3305050574002295,0.008396340086516168,0.1078662840983631,-0.9372371725517926,0.15072330708760193,-0.37061531508611795,-0.4307299573241087,0.0212806714496316,0.35954022105651107,13.918638582407864,17.00837959923209,15.852162402362163,0.07240786256235378,398.91447915827666,-2.8589441441157453
2018-07-21 01:02:34.715512753,44.4899978638,38.3780670166,-4.33999967575,-3.25954461098,136.0,101.38788604700001,False,-0.4975128290850667,-2.057240748630108,-0.3330165038280988,0.015385439648574726,0.1214162677868265,-0.9338229170475253,0.15674959736776656,-0.3749924421459951,-0.42018717296015384,-0.02834531464373454,0.35039859203931206,13.737111949066339,16.967473036154495,15.756985916943243,0.07906633882398524,398.8438994682968,-2.6723857853823447
2018-07-21 01:02:34.753470659,42.5200004578,38.3780670166,-4.5,-3.25954461098,136.0,101.38788604700001,False,-0.4893556751151375,-2.0541402464208103,-0.33552795025596804,0.022374539210633284,0.1349662514752899,-0.930408661543258,0.1627758876479312,-0.3793695692058722,-0.40964438859619906,-0.07797130073710068,0.341256963022113,13.555585315724816,16.926566473076903,15.661809431524324,0.08572481508561669,398.77331977831693,-2.4858274266489437
2018-07-21 01:02:34.853671074,42.5299987793,38.3780670166,-4.48999977112,-3.25954461098,136.0,101.38788604700001,False,-0.4811985211452082,-2.051039744211513,-0.33803939668383737,0.029363638772691842,0.1485162351637533,-0.9269944060389906,0.16880217792809582,-0.38374669626574937,-0.3991016042322443,-0.12759728683046684,0.332115334004914,13.374058682383293,16.885659909999312,15.566632946105406,0.09238329134724815,398.70274008833707,-2.299269067915543
2018-07-21 01:02:34.862963915,40.3099975586,38.3780670166,-4.69000005722,-3.25954461098,136.0,101.38788604700001,False,-0.473041367175279,-2.047939242002216,-0.34055084311170664,0.036352738334750404,0.16206621885221673,-0.9235801505347233,0.17482846820826045,-0.38812382332562656,-0.38855881986828944,-0.17722327292383297,0.322973704987715,13.19253204904177,16.844753346921717,15.471456460686486,0.0990417676088796,398.6321603983572,-2.112710709182142
2018-07-21 01:02:34.900339603,40.3199996948,38.3780670166,-4.69000005722,-3.25954461098,136.0,101.38788604700001,False,-0.464112149117593,-2.0474646010893363,-0.34306228953957596,0.04334183789680896,0.1756162025406801,-0.920165895030456,0.18085475848842508,-0.3925009503855037,-0.37801603550433466,-0.2268492590171991,0.31383207597051593,13.011005415700247,16.803846783844126,15.376279975267567,0.10570024387051107,398.56158070837733,-1.9261523504487417
2018-07-21 01:02:34.975059271,38.0299987793,38.3780670166,-4.88999986649,-3.25954461098,136.0,101.38788604700001,False,-0.45513580977755563,-2.047150224011449,-0.34557373596744523,0.05033093745886752,0.1891661862291435,-0.9167516395261887,0.18688104876858969,-0.39687807744538084,-0.3674732511403799,-0.27647524511056526,0.30469044695331693,12.829478782358722,16.762940220766534,15.281103489848649,0.11235872013214251,398.4910010183975,-1.7395939917153411
2018-07-21 01:02:35.013324499,38.0299987793,38.3780670166,-4.88999986649,-3.25954461098,136.0,101.38788604700001,False,-0.4461594704375183,-2.046835846933562,-0.3480851823953145,0.05732003702092608,0.20271616991760694,-0.9133373840219213,0.19290733904875432,-0.401255204505258,-0.35693046677642504,-0.3261012312039314,0.2955488179361179,12.647952149017199,16.72203365768894,15.185927004429729,0.11901719639377398,398.42042132841766,-1.5530356329819404
2018-07-21 01:02:35.073848248,35.3999977112,41.3370132446,-4.92000007629,-2.0710315704299997,136.0,114.49919128399999,False,-0.43718313109748097,-2.0465214698556755,-0.3468276752476108,0.06353035023195247,0.21447980154888113,-0.9103011460935189,0.15061594594155653,-0.39896933919719996,-0.3608650259072595,-0.2755403605405402,0.2786148778378377,12.98405760891892,16.80779401420054,15.095574466606486,0.119999997318,398.3634627057729,-1.6011220919100004
2018-07-21 01:02:35.103547335,35.3999977112,41.3370132446,-4.92000007629,-2.0710315704299997,136.0,114.49919128399999,False,-0.4282067917574436,-2.0462070927777884,-0.34491753544612824,0.06960580866357935,0.22593410814860743,-0.9073303657540108,0.09995785441230488,-0.39552970897694545,-0.36730648434455093,-0.20763111641277604,0.2603316198034397,13.409796331719905,16.915488036441864,15.006057244384225,0.119999997318,398.30886270950657,-1.689839688095455
2018-07-21 01:02:35.145782471,32.3199996948,41.3370132446,-4.6999998092699995,-2.0710315704299997,136.0,114.49919128399999,False,-0.41923045241740625,-2.0458927156999014,-0.3430073956446457,0.07568126709520623,0.23738841474833372,-0.9043595854145027,0.04929976288305324,-0.3920900787566909,-0.3737479427818423,-0.13972187228501184,0.24204836176904165,13.835535054520887,17.023182058683194,14.916540022161964,0.119999997318,398.2542627132403,-1.7785572842809096
2018-07-21 01:02:35.229826212,32.3199996948,41.3370132446,-4.6999998092699995,-2.0710315704299997,136.0,114.49919128399999,False,-0.41025411307736886,-2.0455783386220143,-0.34109725584316314,0.08175672552683312,0.24884272134806001,-0.9013888050749945,-0.00135832864619842,-0.3886504485364363,-0.38018940121913375,-0.07181262815724765,0.2237651037346436,14.26127377732187,17.13087608092452,14.827022799939703,0.119999997318,398.19966271697393,-1.8672748804663644
2018-07-21 01:02:35.278899670,28.7999992371,41.3370132446,-4.349999904630001,-2.0710315704299997,136.0,114.49919128399999,False,-0.40127777373733153,-2.0452639615441273,-0.33918711604168056,0.08783218395846,0.2602970279477863,-0.8984180247354865,-0.05201642017545005,-0.38521081831618176,-0.38663085965642513,-0.0039033840294834254,0.20548184570024552,14.687012500122854,17.23857010316585,14.737505577717442,0.119999997318,398.1450627207076,-1.955992476651819
2018-07-21 01:02:35.304504871,28.7999992371,41.3370132446,-4.36000013351,-2.0710315704299997,136.0,114.49919128399999,False,-0.39230143439729415,-2.0449495844662406,-0.33727697624019803,0.09390764239008689,0.27175133454751266,-0.8954472443959783,-0.10267451170470168,-0.3817711880959272,-0.39307231809371657,0.06400586009828074,0.18719858766584746,15.112751222923837,17.346264125407174,14.647988355495182,0.119999997318,398.09046272444124,-2.0447100728372734
2018-07-21 01:02:35.346718788,24.5699996948,41.3370132446,-3.74000000954,-2.0710315704299997,136.0,114.49919128399999,False,-0.3833620758063713,-2.04931999069428,-0.33536683643871545,0.09998310082171377,0.2832056411472389,-0.8924764640564702,-0.15333260323395334,-0.3783315578756727,-0.39951377653100795,0.13191510422604497,0.1689153296314494,15.53848994572482,17.453958147648503,14.55847113327292,0.119999997318,398.03586272817495,-2.133427669022728
2018-07-21 01:02:35.391448498,24.5699996948,41.3370132446,-3.74000000954,-2.0710315704299997,136.0,114.49919128399999,False,-0.37442515934039,-2.053999769404786,-0.3313863521370962,0.10507947297910863,0.2951366730208906,-0.8896248982459262,-0.1991790516076633,-0.37347048635287755,-0.39931859028444755,0.1550077169041762,0.1694550568058972,15.652753079950854,17.52732782382668,14.468566805506239,0.11725798263726463,397.989945890146,-2.1278432010424297
2018-07-21 01:02:35.434462070,24.5699996948,40.9616775513,-3.75999999046,-0.520828425884,136.0,125.96601104700001,False,-0.3654882428744087,-2.058679548115292,-0.3234432729857532,0.1083018950632423,0.3079801468166788,-0.8870015064800663,-0.23581611845786382,-0.36588880674565,-0.38642100883653696,0.09232226078624002,0.2060215728746933,15.170858636044219,17.535001439797984,14.37792156605238,0.10926781082565966,397.9606484302487,-1.941766610250269
2018-07-21 01:02:35.496667862,20.1199989319,40.9616775513,-3.36999988556,-0.520828425884,136.0,125.96601104700001,False,-0.35655132640842735,-2.063359326825798,-0.3155001938344102,0.11152431714737596,0.320823620612467,-0.8843781147142064,-0.2724531853080644,-0.3583071271384225,-0.3735234273886264,0.029636804668303846,0.24258808894348943,14.688964192137586,17.542675055769287,14.287276326598523,0.10127763901405468,397.9313509703514,-1.7556900194581082
2018-07-21 01:02:35.548883915,15.619999885599999,40.9616775513,-3.06999993324,-0.520828425884,136.0,125.96601104700001,False,-0.347614409942446,-2.0680391055363043,-0.30755711468306723,0.11474673923150963,0.3336670944082552,-0.8817547229483463,-0.3090902521582649,-0.35072544753119494,-0.3606258459407158,-0.033048651449632344,0.2791546050122855,14.207069748230952,17.55034867174059,14.196631087144667,0.09328746720244971,397.9020535104541,-1.5696134286659473
