time,roll_commanded,roll_measured,pitch_commanded,pitch_measured,yaw_commanded,yaw_measured,label,wind_estimation_linear_x,wind_estimation_linear_y,orientation_x,orientation_y,orientation_z,orientation_w,angular_velocity_x,angular_velocity_y,angular_velocity_z,linear_acceleration_x,linear_acceleration_y,linear_acceleration_z,airspeed,groundspeed,throttle,altitude,climb
2018-09-11 18:27:30.463212729,37.9500007629,12.407991409300001,-4.3699998855599995,1.6857984066,92.0,-86.0192489624,False,0.879636576443,1.0534527071100002,-0.0183688546865,-0.107483858993,-0.993491341616,-0.0329356853267,0.779634237289,0.0806980803609,-0.0547380000353,1.6082906000000001,0.91201845,11.434553900000001,0.0,20.1535625458,0.430000007153,432.489990234,0.226291209459
2018-09-11 18:27:30.508051394,37.9500007629,12.407991409300001,-4.349999904630001,1.6857984066,92.0,-86.0192489624,False,0.879925057429383,1.0541788927934894,-0.018257489393847404,-0.12071074149344256,-0.9912814582063285,-0.03529291725904349,0.7625661852001422,0.07378696583687311,-0.0791345701699972,1.323154948425532,0.8820726966382979,11.394192232425533,0.0,20.13268036053464,0.428672344887897,432.54707862332424,0.2735574619564264
2018-09-11 18:27:30.545675516,39.8899993896,12.407991409300001,-4.69000005722,1.6857984066,92.0,-86.0192489624,False,0.880213538415766,1.054905078476979,-0.01814612410119481,-0.13393762399388512,-0.989071574796657,-0.037650149191386977,0.7454981331112843,0.06687585131284621,-0.10353114030469437,1.038019296851064,0.8521269432765958,11.353830564851064,0.0,20.111798175269275,0.42734468262279407,432.60416701264853,0.32082371445385277
2018-09-11 18:27:30.617839098,39.8899993896,12.407991409300001,-4.65999984741,1.6857984066,92.0,-86.0192489624,False,0.8805020194021489,1.0556312641604682,-0.018034758808542214,-0.14716450649432766,-0.9868616913869855,-0.040007381123730465,0.7284300810224265,0.05996473678881932,-0.12792771043939158,0.7528836452765957,0.8221811899148936,11.313468897276596,0.0,20.090915990003914,0.42601702035769107,432.66125540197277,0.36808996695127916
2018-09-11 18:27:30.654996634,-44.9899978638,12.407991409300001,-7.019999980930001,1.6857984066,-134.0,-86.0192489624,False,0.8807905003885319,1.0563574498439574,-0.017923393515889615,-0.1603913889947702,-0.984651807977314,-0.04236461305607396,0.7113620289335686,0.05305362226479242,-0.15232428057408876,0.4677479937021276,0.7922354365531915,11.273107229702129,0.0,20.070033804738554,0.42468935809258807,432.718343791297,0.41535621944870554
2018-09-11 18:27:30.671613216,-44.9899978638,12.407991409300001,-7.0,1.6857984066,-134.0,-86.0192489624,False,0.8810789813749149,1.0570836355274469,-0.01781202822323702,-0.17361827149521275,-0.9824419245676426,-0.04472184498841745,0.6942939768447107,0.04614250774076553,-0.17672085070878596,0.18261234212765953,0.7622896831914894,11.23274556212766,0.0,20.049151619473193,0.42336169582748506,432.7754321806213,0.46262247194613193
2018-09-11 18:27:30.746675253,-44.9899978638,23.981464386,-9.269999504089999,0.759269952774,-134.0,-83.8976898193,False,0.8813674623612979,1.0578098212109361,-0.017700662930584424,-0.18684515399565532,-0.9802320411579711,-0.04707907692076094,0.6772259247558527,0.03923139321673864,-0.20111742084348314,-0.10252330944680876,0.7323439298297871,11.192383894553192,0.0,20.02826943420783,0.4220340335623821,432.83252056994553,0.5098887244435584
2018-09-11 18:27:30.799365520,-44.9899978638,23.981464386,-9.289999961849999,0.759269952774,-134.0,-83.8976898193,False,0.8816559433476808,1.0585360068944254,-0.01758929763793183,-0.20007203649609787,-0.9780221577482996,-0.04943630885310443,0.6601578726669949,0.03232027869271174,-0.2255139909781803,-0.38765896102127684,0.7023981764680851,11.152022226978723,0.0,20.007387248942468,0.4207063712972791,432.88960895926976,0.5571549769409847
2018-09-11 18:27:30.855607510,-44.9899978638,23.981464386,-11.5900001526,0.759269952774,-134.0,-83.8976898193,False,0.8819444243340638,1.0592621925779149,-0.015368655342462127,-0.19245932175312724,-0.9781148754669116,-0.05163569634727566,0.5362110326645634,0.035772316294132425,-0.22683731054075368,-0.568610432212766,0.6681875736170212,11.075104706638298,0.0,19.96348234626051,0.40881700864502296,432.9572598849719,0.8305519505764511
2018-09-11 18:27:30.889669657,-44.9899978638,23.981464386,-11.630000114400001,0.759269952774,-134.0,-83.8976898193,False,0.8822329053204468,1.0599883782614041,-0.010749793988994893,-0.16115227041833063,-0.9808256191259005,-0.05365561687749762,0.2907444748973838,0.05100711590119898,-0.2019266602747479,-0.6311059174893616,0.6291278953191489,10.956623682468084,0.0,19.893400929255574,0.38491913733340083,433.0369202698434,1.3610564564647576
2018-09-11 18:27:30.955606222,-44.9899978638,23.981464386,-13.9799995422,0.759269952774,-134.0,-83.8976898193,False,0.8823815755072554,1.0604866313874466,-0.006130932635527659,-0.12984521908353402,-0.9835363627848894,-0.05567553740771957,0.04527791713020424,0.06624191550826553,-0.17701601000874212,-0.6936014027659574,0.5900682170212765,10.838142658297873,0.0,19.823319512250638,0.3610212660217787,433.1165806547149,1.891560962353064
2018-09-11 18:27:30.971068144,-44.9899978638,23.981464386,-14.0,0.759269952774,-134.0,-83.8976898193,False,0.8825246532620808,1.0609757672111912,-0.0015120712820604239,-0.09853816774873744,-0.9862471064438784,-0.05769545793794153,-0.20018864063697528,0.08147671511533208,-0.1521053597427363,-0.7560968880425532,0.5510085387234043,10.71966163412766,0.0,19.753238095245703,0.33712339471015657,433.19624103958637,2.4220654682413705
2018-09-11 18:27:31.035696745,-44.9899978638,23.981464386,-14.019999504100001,0.759269952774,-134.0,-83.8976898193,False,0.8826677310169064,1.0614649030349361,0.003106790071406809,-0.06723111641394086,-0.9889578501028673,-0.05971537846816349,-0.4456551984041548,0.09671151472239863,-0.12719470947673053,-0.8185923733191489,0.5119488604255319,10.601180609957446,0.0,19.683156678240763,0.31322552339853443,433.2759014244579,2.952569974129677
2018-09-11 18:27:31.135335922,-44.979999542200005,23.981464386,-16.2799987793,0.759269952774,-134.0,-83.8976898193,False,0.8828108087717319,1.0619540388586808,0.007725651424874042,-0.03592406507914425,-0.9916685937618562,-0.061735298998385445,-0.6911217561713345,0.11194631432946518,-0.10228405921072475,-0.8810878585957447,0.47288918212765957,10.482699585787234,0.0,19.613075261235828,0.28932765208691236,433.3555618093294,3.4830744800179834
2018-09-11 18:27:31.203146696,-44.969997406000005,-3.41339087486,-18.5299987793,-1.7559289932299997,-134.0,-82.3858337402,False,0.8829538865265574,1.0624431746824254,0.012344512778341275,-0.00461701374434767,-0.9943793374208452,-0.0637552195286074,-0.936588313938514,0.12718111393653175,-0.07737340894471895,-0.9435833438723404,0.43382950382978724,10.36421856161702,0.0,19.542993844230892,0.2654297807752902,433.4352221942009,4.01357898590629
2018-09-11 18:27:31.229334354,-44.9599990845,-3.41339087486,-18.5200004578,-1.7559289932299997,-134.0,-82.3858337402,False,0.883096964281383,1.06293231050617,0.016963374131808512,0.02669003759044894,-0.9970900810798341,-0.06577514005882935,-1.1820548717056936,0.14241591354359828,-0.05246275867871317,-1.0060788291489362,0.3947698255319149,10.245737537446809,0.0,19.472912427225957,0.24153190946366807,433.5148825790724,4.544083491794597
2018-09-11 18:27:31.286137342,-44.9500007629,-3.41339087486,-20.7299995422,-1.7559289932299997,-134.0,-82.3858337402,False,0.8832400420362084,1.0634214463299148,0.026025673391333104,0.05286769538863277,-0.9937305006966392,-0.0654097373935194,-1.1258324433427354,0.1568934286405702,-0.03701638394531677,-1.069792842851064,0.4007956989787234,9.344961264085105,0.0,19.393746868712423,0.21887659108421445,433.59205543060597,4.272680873467396
2018-09-11 18:27:31.367153645,-44.8999977112,-3.41339087486,-22.739999771100003,-1.7559289932299997,-134.0,-82.3858337402,False,0.883383119791034,1.0639105821536594,0.03539231771291642,0.07869402486239106,-0.9899551446941166,-0.06488095642714561,-1.0489463857927812,0.17131907493548085,-0.022218247262099065,-1.1335903174042552,0.4099096239148936,8.390603124340425,0.0,19.3139591087257,0.19630637906997786,433.6690579031438,3.946353109645983
2018-09-11 18:27:31.449091911,-44.840000152600005,-3.41339087486,-22.709999084499998,-1.7559289932299997,-134.0,-82.3858337402,False,0.8835261975458595,1.064399717977404,0.044758962034499736,0.10452035433614937,-0.9861797886915941,-0.06435217546077182,-0.9720603282428273,0.18574472123039149,-0.007420110578881367,-1.1973877919574467,0.4190235488510638,7.436244984595744,0.0,19.23417134873898,0.17373616705574127,433.74606037568174,3.6200253458245704
2018-09-11 18:27:31.477256298,-44.7999992371,-3.41339087486,-23.420000076300003,-1.7559289932299997,-134.0,-82.3858337402,False,0.8836101668044808,1.065036567174085,0.054125606356083045,0.13034668380990766,-0.9824044326890715,-0.06382339449439804,-0.8951742706928731,0.20017036752530212,0.007378026104336334,-1.2611852665106382,0.42813747378723405,6.481886844851063,0.0,19.154383588752253,0.15116595504150468,433.8230628482196,3.2936975820031575
2018-09-11 18:27:31.549968243,-44.7099990845,-3.41339087486,-23.0199985504,-1.7559289932299997,-134.0,-82.3858337402,False,0.8836892103550851,1.0656857258185106,0.06349225067766637,0.15617301328366595,-0.9786290766865489,-0.06329461352802425,-0.8182882131429191,0.21459601382021276,0.022176162787554035,-1.3249827410638297,0.43725139872340424,5.527528705106383,0.0,19.07459582876553,0.1285957430272681,433.90006532075745,2.967369818181745
2018-09-11 18:27:31.596085548,-44.6100006104,-3.41339087486,-22.609998703000002,-1.7559289932299997,-134.0,-82.3858337402,False,0.8837682539056894,1.0663348844629361,0.07285889499924968,0.18199934275742424,-0.9748537206840263,-0.06276583256165047,-0.7414021555929651,0.2290216601151234,0.03697429947077173,-1.3887802156170213,0.44636532365957443,4.5731705653617025,0.0,18.99480806877881,0.1060255310130315,433.9770677932953,2.641042054360332
2018-09-11 18:27:31.661044598,-44.520000457799995,-26.6137638092,-22.1899986267,-8.19253063202,-134.0,-80.7451324463,False,0.8838472974562935,1.0669840431073616,0.082225539320833,0.20782567223118253,-0.9710783646815038,-0.062237051595276684,-0.664516098043011,0.24344730641003404,0.05177243615398944,-1.4525776901702128,0.4554792485957446,3.6188124256170218,0.0,18.915020308792084,0.08345531899879491,434.05407026583316,2.3147142905389195
2018-09-11 18:27:31.673918486,-44.5,-26.6137638092,-22.0499992371,-8.19253063202,-134.0,-80.7451324463,False,0.8839263410068978,1.067633201751787,0.08926839157264799,0.22549321065633446,-0.9681812262086842,-0.06014415353992,-0.5947697115450894,0.2451537461231966,0.07569981559789546,-1.5000752605106382,0.4672221903404255,3.08194215506383,0.0,18.846767068409616,0.06785531939500272,434.07584890815315,2.034145145823117
2018-09-11 18:27:31.751970053,-44.430000305200004,-26.6137638092,-21.659999847399998,-8.19253063202,-134.0,-80.7451324463,False,0.8840053845575021,1.0682823603962128,0.09288088410242398,0.23111681943830553,-0.9665805040892357,-0.05574232073416,-0.5355628394573106,0.2280842142156834,0.11310369625996049,-1.5235110674893617,0.48284606165957444,3.16136350093617,0.0,18.795540976014383,0.06254468096853327,434.01610665824677,1.8211244388346435
2018-09-11 18:27:31.811945915,-44.3899993896,-26.6137638092,-21.520000457800002,-8.19253063202,-134.0,-80.7451324463,False,0.8840844281081064,1.0689315190406383,0.09649337663219999,0.2367404282202766,-0.9649797819697872,-0.0513404879284,-0.4763559673695319,0.21101468230817022,0.1505075769220255,-1.5469468744680852,0.4984699329787234,3.2407848468085105,0.0,18.744314883619147,0.05723404254206382,433.9563644083404,1.6081037318461704
2018-09-11 18:27:31.835906267,-44.3499984741,-26.6137638092,-21.4099998474,-8.19253063202,-134.0,-80.7451324463,False,0.8841634716587107,1.0695806776850638,0.10010586916197599,0.24236403700224768,-0.9633790598503387,-0.046938655122640005,-0.41714909528175315,0.19394515040065702,0.18791145758409053,-1.5703826814468085,0.5140938042978723,3.320206192680851,0.0,18.693088791223914,0.05192340411559438,433.896622158434,1.3950830248576973
2018-09-11 18:27:31.891297579,-44.2799987793,-26.6137638092,-21.3400001526,-8.19253063202,-134.0,-80.7451324463,False,0.8842425152093148,1.0702298363294893,0.103718361691752,0.24798764578421872,-0.9617783377308902,-0.042536822316879996,-0.35794222319397445,0.17687561849314382,0.22531533824615554,-1.593818488425532,0.5297176756170212,3.399627538553191,0.0,18.64186269882868,0.04661276568912494,433.83687990852764,1.182062317869224
2018-09-11 18:27:31.943294048,-44.159999847399995,-26.6137638092,-21.2899990082,-8.19253063202,-134.0,-80.7451324463,False,0.8841321155533958,1.0706582233637447,0.107330854221528,0.2536112545661898,-0.9601776156114417,-0.03813498951112,-0.2987353511061957,0.1598060865856306,0.2627192189082206,-1.6172542954042555,0.5453415469361702,3.4790488844255316,0.0,18.590636606433446,0.04130212726265549,433.77713765862126,0.9690416108807507
2018-09-11 18:27:31.998947144,-44.069999694799996,-26.6137638092,-21.2299995422,-8.19253063202,-134.0,-80.7451324463,False,0.883997005914017,1.0710578141010214,0.110943346751304,0.25923486334816087,-0.9585768934919932,-0.03373315670536,-0.239528479018417,0.1427365546781174,0.3001230995702856,-1.6406901023829787,0.5609654182553191,3.558470230297872,0.0,18.539410514038213,0.035991488836186046,433.7173954087149,0.7560209038922776
2018-09-11 18:27:32.047530651,-43.9599990845,-31.7332191467,-21.109998703,-11.8185987473,-134.0,-83.1854782104,False,0.8838618962746383,1.0714574048382979,0.11455583928108,0.2648584721301319,-0.9569761713725446,-0.029331323899599998,-0.18032160693063826,0.12566702277060424,0.3375269802323506,-1.6641259093617022,0.5765892895744681,3.6378915761702126,0.0,18.488184421642977,0.030680850409716597,433.6576531588085,0.5430001969038043
2018-09-11 18:27:32.113795757,-43.7099990845,-31.7332191467,-20.8699989319,-11.8185987473,-134.0,-83.1854782104,False,0.8837267866352596,1.0718569955755746,0.11774314456752596,0.2696665835112724,-0.9551814830818145,-0.021878125628836422,-0.17442119887570384,0.10394788615208442,0.32979823711044426,-1.6852915811914895,0.5218389712765957,3.848980760680851,0.0,18.43683624594834,0.031157446112041704,433.5087852441532,0.13847431264100912
2018-09-11 18:27:32.149158955,-43.5999984741,-31.7332191467,-20.7399997711,-11.8185987473,-134.0,-83.1854782104,False,0.8835916769958808,1.0722565863128513,0.12086792231818809,0.27435476880405535,-0.953358270354131,-0.013976197142631146,-0.17635997670795234,0.08154498413488714,0.3154323434320715,-1.7061234096170212,0.45673950744680847,4.079432862638297,0.0,18.385470116827317,0.0324851056568366,433.3468106140936,-0.29421409769153906
2018-09-11 18:27:32.203878880,-43.5099983215,-31.7332191467,-20.6199989319,-11.8185987473,-134.0,-83.1854782104,False,0.8834565673565021,1.0726561770501277,0.12399270006885021,0.2790429540968383,-0.9515350576264476,-0.006074268656425866,-0.17829875454020086,0.059142082117689856,0.30106644975369873,-1.7269552380425532,0.3916400436170212,4.309884964595745,0.0,18.334103987706296,0.03381276520163149,433.18483598403407,-0.7269025080240873
2018-09-11 18:27:32.242182255,-43.430000305200004,-31.7332191467,-20.5200004578,-11.8185987473,-134.0,-83.1854782104,False,0.8833214577171234,1.0730557677874044,0.12711747781951235,0.2837311393896213,-0.9497118448987643,0.0018276598297794107,-0.18023753237244935,0.03673918010049258,0.28670055607532596,-1.747787066468085,0.326540579787234,4.5403370665531915,0.0,18.282737858585275,0.03514042474642638,433.02286135397446,-1.1595909183566353
2018-09-11 18:27:32.268868923,-43.3600006104,-31.7332191467,-20.4300003052,-11.8185987473,-134.0,-83.1854782104,False,0.8831863480777447,1.0734553585246809,0.1302422555701745,0.2884193246824043,-0.9478886321710808,0.009729588315984687,-0.18217631020469788,0.014336278083295309,0.27233466239695314,-1.768618894893617,0.26144111595744673,4.770789168510638,0.0,18.231371729464254,0.03646808429122128,432.86088672391486,-1.5922793286891834
2018-09-11 18:27:32.334061623,-43.270000457799995,-31.7332191467,-20.3099994659,-11.8185987473,-134.0,-83.1854782104,False,0.883051238438366,1.0738549492619576,0.1333670333208366,0.29310750997518725,-0.9460654194433974,0.017631516802189967,-0.18411508803694637,-0.008066623933901979,0.2579687687185804,-1.7894507233191488,0.19634165212765953,5.0012412704680855,0.0,18.180005600343232,0.03779574383601617,432.6989120938553,-2.0249677390217315
2018-09-11 18:27:32.365358829,-43.229999542200005,-35.608486175500005,-20.2299995422,-16.2500915527,-134.0,-88.4850463867,False,0.882471800067566,1.07511276226383,0.13649181107149874,0.29779569526797023,-0.944242206715714,0.025533445288395247,-0.1860538658691949,-0.030469525951099252,0.2436028750402076,-1.8102825517446808,0.13124218829787226,5.231693372425532,0.0,18.12863947122221,0.039123403380811064,432.5369374637957,-2.4576561493542797
2018-09-11 18:27:32.452459335,-43.159999847399995,-35.608486175500005,-20.109998703,-16.2500915527,-134.0,-88.4850463867,False,0.8818115746546893,1.076526615677447,0.1386383037199915,0.3023785175636936,-0.9423587757428374,0.03331921723288971,-0.18441191561064169,-0.05112855281607969,0.23675112757308595,-1.822709872468085,0.07410488965957442,5.53734370119149,0.0,18.096793505125532,0.040451063009625615,432.3104610363906,-2.853300901369575
2018-09-11 18:27:32.491043806,-43.0999984741,-35.608486175500005,-19.9799995422,-16.2500915527,-134.0,-88.4850463867,False,0.8811513492418127,1.077940469091064,0.13888360079257023,0.30675657780852766,-0.940358316859491,0.040879250992549965,-0.17581119189260594,-0.06839853929090282,0.24450234349764086,-1.8188039046382978,0.03244123280851059,5.989133980170213,0.0,18.10288295018936,0.04177872280172366,431.9586320594272,-3.176955147598511
2018-09-11 18:27:32.603339195,-42.9199981689,-35.608486175500005,-19.7899990082,-16.2500915527,-134.0,-88.4850463867,False,0.8804911238289361,1.0793543225046809,0.13912889786514895,0.3111346380533617,-0.9383578579761447,0.048439284752210224,-0.1672104681745702,-0.08566852576572598,0.25225355942219574,-1.8148979368085105,-0.009222424042553218,6.440924259148936,0.0,18.108972395253193,0.0431063825938217,431.60680308246384,-3.500609393827447
2018-09-11 18:27:32.678936481,-42.7999992371,-35.608486175500005,-19.6899986267,-16.2500915527,-134.0,-88.4850463867,False,0.8798308984160595,1.0807681759182979,0.13937419493772765,0.3155126982981958,-0.9363573990927982,0.05599931851187048,-0.15860974445653447,-0.10293851224054912,0.26000477534675065,-1.8109919689787233,-0.05088608089361704,6.8927145381276596,0.0,18.115061840317022,0.04443404238591974,431.2549741055004,-3.824263640056383
2018-09-11 18:27:32.750596523,-42.6199989319,-35.608486175500005,-19.4799995422,-16.2500915527,-134.0,-88.4850463867,False,0.879170673003183,1.082182029331915,0.13961949201030638,0.3198907585430298,-0.9343569402094519,0.06355935227153073,-0.15000902073849873,-0.12020849871537224,0.26775599127130556,-1.807086001148936,-0.09254973774468087,7.344504817106383,0.0,18.12115128538085,0.04576170217801778,430.90314512853706,-4.147917886285319
2018-09-11 18:27:32.767117739,-42.6100006104,-35.608486175500005,-19.420000076300003,-16.2500915527,-134.0,-88.4850463867,False,0.8785104475903063,1.083595882745532,0.1398647890828851,0.32426881878786384,-0.9323564813261055,0.07111938603119099,-0.14140829702046298,-0.1374784851901954,0.2755072071958604,-1.8031800333191488,-0.13421339459574466,7.796295096085107,0.0,18.12724073044468,0.04708936197011583,430.55131615157364,-4.471572132514256
2018-09-11 18:27:32.856056690,-41.5599975586,-38.891166686999995,-19.4499988556,-18.6106052399,-134.0,-94.1753616333,False,0.8778502221774297,1.085009736159149,0.14011008615546383,0.3286468790326979,-0.9303560224427592,0.07867941979085125,-0.13280757330242723,-0.15474847166501854,0.2832584231204153,-1.7992740654893618,-0.1758770514468085,8.24808537506383,0.0,18.13333017550851,0.048417021762213866,430.1994871746102,-4.795226378743191
2018-09-11 18:27:32.889221191,-41.5400009155,-38.891166686999995,-19.5100002289,-18.6106052399,-134.0,-94.1753616333,False,0.8771899967645531,1.086423589572766,0.14035538322804256,0.33302493927753196,-0.9283555635594127,0.0862394535505115,-0.12420684958439149,-0.17201845813984168,0.29100963904497024,-1.7953680976595745,-0.21754070829787228,8.699875654042552,0.0,18.13941962057234,0.049744681554311915,429.84765819764687,-5.118880624972127
2018-09-11 18:27:32.943556547,-40.219997406,-38.891166686999995,-19.8799991608,-18.6106052399,-134.0,-94.1753616333,False,0.8761572795091446,1.087848704411532,0.14046616558521702,0.33158917338648003,-0.9273096204101056,0.09766940938933906,-0.12280421577274893,-0.17035372204009105,0.3194475499619166,-1.8082878374042552,-0.22555295,9.067537395148936,0.0,18.21122317372979,0.04892766014379004,429.51405717539495,-5.435251205929574
2018-09-11 18:27:32.993876219,-40.1299972534,-38.891166686999995,-20.0599994659,-18.6106052399,-134.0,-94.1753616333,False,0.8750358737198,1.089276500542,0.1405449206292,0.32876916317736,-0.92649094291176,0.110020775247016,-0.1231154128912,-0.16418071866068,0.35281086444848003,-1.825213698,-0.22555295,9.415168532,0.0,18.298672943099998,0.047600000351692,429.18479614236,-5.74988758087
2018-09-11 18:27:33.030100822,-40.0299987793,-38.891166686999995,-20.2099990845,-18.6106052399,-134.0,-94.1753616333,False,0.8739144679304552,1.090704296672468,0.14062367567318299,0.32594915296824,-0.9256722654134145,0.12237214110469294,-0.12342661000965106,-0.15800771528126892,0.38617417893504347,-1.8421395585957447,-0.22555295,9.762799668851065,0.0,18.38612271247021,0.04627234055959396,428.85553510932516,-6.064523955810426
2018-09-11 18:27:33.079085112,-38.5599975586,-38.891166686999995,-20.329999923699997,-18.6106052399,-134.0,-94.1753616333,False,0.8727930621411105,1.0921320928029363,0.14070243071716595,0.32312914275911997,-0.924853587915069,0.1347235069623699,-0.12373780712810212,-0.15183471190185788,0.41953749342160684,-1.8590654191914893,-0.22555295,10.110430805702128,0.0,18.473572481840424,0.044944680767495915,428.52627407629024,-6.379160330750851
2018-09-11 18:27:33.189448595,-36.8499984741,-38.891166686999995,-20.5100002289,-18.6106052399,-134.0,-94.1753616333,False,0.8716716563517659,1.0935598889334044,0.14078118576114892,0.32030913255,-0.9240349104167235,0.14707487282004683,-0.12404900424655319,-0.1456617085224468,0.4529008079081703,-1.875991279787234,-0.22555295,10.458061942553192,0.0,18.561022251210638,0.043617020975397866,428.19701304325537,-6.693796705691277
2018-09-11 18:27:33.251998663,-36.659999847399995,-34.4891281128,-20.5699996948,-21.897018432600003,-134.0,-105.312232971,False,0.8705502505624212,1.0949876850638725,0.14085994080513192,0.31748912234087995,-0.923216232918378,0.15942623867772376,-0.12436020136500425,-0.13948870514303574,0.4862641223947337,-1.8929171403829788,-0.22555295,10.805693079404255,0.0,18.64847202058085,0.042289361183299824,427.86775201022044,-7.008433080631702
2018-09-11 18:27:33.274382353,-35.0099983215,-34.4891281128,-20.609998703,-21.897018432600003,-134.0,-105.312232971,False,0.8694288447730766,1.0964154811943405,0.1409386958491149,0.31466911213175996,-0.9223975554200324,0.1717776045354007,-0.12467139848345532,-0.13331570176362467,0.5196274368812971,-1.9098430009787233,-0.22555295,11.15332421625532,0.0,18.735921789951064,0.04096170139120178,427.5384909771856,-7.323069455572128
2018-09-11 18:27:33.326699734,-34.8600006104,-34.4891281128,-20.6199989319,-21.897018432600003,-134.0,-105.312232971,False,0.8683074389837319,1.0978432773248086,0.1407779223520468,0.31311082676304425,-0.9211052095836656,0.1831282571543813,-0.12442193968467828,-0.1310404123903694,0.5317006417410611,-1.9285632698723405,-0.1982779438723401,11.378935588851062,0.0,18.813172958063063,0.0399999991059,427.220209337623,-7.550704191897293
2018-09-11 18:27:33.364514589,-33.219997406,-34.4891281128,-20.5900001526,-21.897018432600003,-134.0,-105.312232971,False,0.8671860331943871,1.0992710734552766,0.13998769013082127,0.31486823690515825,-0.9185681074171499,0.19184912847167152,-0.12269912928946466,-0.1390079528472443,0.48782541897691134,-1.9519990768510638,-0.09932675885106354,11.283890371659574,0.0,18.863623150775574,0.0399999991059,426.93078052276684,-7.549706715117242
2018-09-11 18:27:33.434037685,-33.1699981689,-34.4891281128,-20.5100002289,-21.897018432600003,-134.0,-105.312232971,False,0.8669378020074255,1.1013915743576597,0.13919745790959573,0.3166256470472723,-0.9160310052506341,0.20056999978896173,-0.12097631889425106,-0.1469754933041192,0.44395019621276155,-1.9754348838297873,-0.0003755738297869793,11.188845154468085,0.0,18.914073343488084,0.0399999991059,426.64135170791064,-7.548709238337191
2018-09-11 18:27:33.493756533,-31.4499988556,-34.4891281128,-20.4499988556,-21.897018432600003,-134.0,-105.312232971,False,0.8669515232011787,1.1037198866916171,0.13840722568837022,0.31838305718938636,-0.9134939030841184,0.20929087110625194,-0.11925350849903744,-0.15494303376099405,0.4000749734486118,-1.9988706908085108,0.09857561119148958,11.093799937276595,0.0,18.964523536200595,0.0399999991059,426.35192289305445,-7.5477117615571405
2018-09-11 18:27:33.534474611,-31.459999084499998,-34.7842254639,-20.4699993134,-23.853456497199996,-134.0,-112.965942383,False,0.8669652443949319,1.1060481990255744,0.13761699346714468,0.3201404673315004,-0.9109568009176026,0.21801174242354215,-0.11753069810382383,-0.16291057421786895,0.3561997506844621,-2.022306497787234,0.19752679621276617,10.998754720085106,0.0,19.014973728913105,0.0399999991059,426.0624940781983,-7.54671428477709
2018-09-11 18:27:33.566777706,-29.5,-34.7842254639,-20.5699996948,-23.853456497199996,-134.0,-112.965942383,False,0.8669789655886851,1.1083765113595319,0.13682676124591914,0.3218978774736144,-0.9084196987510869,0.22673261374083237,-0.11580788770861021,-0.17087811467474384,0.3123245279203123,-2.0457423047659575,0.2964779812340428,10.903709502893616,0.0,19.065423921625616,0.0399999991059,425.7730652633421,-7.545716807997039
2018-09-11 18:27:33.644036531,-27.6399993896,-34.7842254639,-20.8699989319,-23.853456497199996,-134.0,-112.965942383,False,0.8669926867824382,1.1107048236934893,0.13603652902469363,0.3236552876157285,-0.905882596584571,0.23545348505812258,-0.1140850773133966,-0.1788456551316187,0.2684493051561625,-2.069178111744681,0.3954291662553193,10.808664285702127,0.0,19.11587411433813,0.0399999991059,425.4836364484859,-7.544719331216988
2018-09-11 18:27:33.672137737,-27.659999847399998,-34.7842254639,-20.9099998474,-23.853456497199996,-134.0,-112.965942383,False,0.8670064079761914,1.1130331360274468,0.13524629680346809,0.32541269775784254,-0.9033454944180553,0.2441743563754128,-0.11236226691818298,-0.1868131955884936,0.2245740823920127,-2.0926139187234045,0.49438035127659585,10.713619068510638,0.0,19.16632430705064,0.0399999991059,425.1942076336298,-7.543721854436937
2018-09-11 18:27:33.761332512,-25.6800003052,-34.7842254639,-21.0,-23.853456497199996,-134.0,-112.965942383,False,0.8670201291699446,1.1153614483614043,0.13331679778409447,0.3227543160374987,-0.9030616736697217,0.24964690427789107,-0.08931894531883997,-0.18181532679694293,0.20719450442050638,-2.0995912458723405,0.4800584692340425,10.772509045021277,0.0,19.26019157246885,0.03901276508541149,424.77446320210635,-7.5186932555702475
2018-09-11 18:27:33.811761856,-25.739999771100003,-34.7842254639,-21.1399993896,-23.853456497199996,-134.0,-112.965942383,False,0.8670338503636978,1.1176897606953617,0.1309944481446698,0.31857324746803145,-0.9035548465138646,0.25399934065802043,-0.05892372330427994,-0.17234662723007316,0.19895135568784256,-2.1008932351489364,0.4266769088936169,10.88448012280851,0.0,19.36903024226834,0.03768510554061659,424.30978235104254,-7.485378062880579
2018-09-11 18:27:33.849829197,-23.75,-34.7842254639,-21.2399997711,-23.853456497199996,-134.0,-112.965942383,False,0.867047571557451,1.1200180730293192,0.1286720985052451,0.31439217889856425,-0.9040480193580076,0.2583517770381498,-0.028528501289719926,-0.16287792766320336,0.1907082069551787,-2.102195224425532,0.37329534855319135,10.996451200595745,0.0,19.47786891206783,0.0363574459958217,423.8451014999787,-7.452062870190911
2018-09-11 18:27:33.879496813,-23.7699985504,-34.7842254639,-21.2899990082,-23.853456497199996,-134.0,-112.965942383,False,0.8654424489481192,1.1227753308088937,0.12634974886582043,0.310211110329097,-0.9045411922021506,0.26270421341827915,0.001866720724840093,-0.15340922809633356,0.18246505822251488,-2.103497213702128,0.3199137882127658,11.108422278382978,0.0,19.58670758186732,0.035029786451026806,423.3804206489149,-7.418747677501242
2018-09-11 18:27:33.933197021,-23.809999465900002,-34.7842254639,-21.420000076300003,-23.853456497199996,-134.0,-112.965942383,False,0.8632409102008085,1.1256906211210638,0.12402739922639575,0.3060300417596298,-0.9050343650462935,0.26705664979840854,0.0322619427394001,-0.1439405285294638,0.17422190948985103,-2.1047992029787235,0.2665322278723402,11.220393356170213,0.0,19.69554625166681,0.03370212690623191,422.915739797851,-7.385432484811575
2018-09-11 18:27:33.960612535,-21.5699996948,-34.7842254639,-21.4599990845,-23.853456497199996,-134.0,-112.965942383,False,0.8610393714534978,1.128605911433234,0.12170504958697106,0.3018489731901625,-0.9055275378904366,0.2714090861785379,0.06265716475396012,-0.134471828962594,0.1659787607571872,-2.106101192255319,0.21315066753191464,11.332364433957446,0.0,19.8043849214663,0.032374467361437016,422.4510589467872,-7.352117292121906
2018-09-11 18:27:34.033388615,-21.590000152600002,-30.3573226929,-21.6899986267,-22.1772289276,-134.0,-118.15279388399999,False,0.8588378327061872,1.1315212017454044,0.11938269994754638,0.29766790462069526,-0.9060207107345796,0.27576152255866726,0.09305238676852014,-0.12500312939572422,0.15773561202452335,-2.107403181531915,0.15976910719148907,11.444335511744681,0.0,19.91322359126579,0.031046807816642125,421.98637809572335,-7.318802099432238
2018-09-11 18:27:34.064570427,-19.329999923699997,-30.3573226929,-21.8199996948,-22.1772289276,-134.0,-118.15279388399999,False,0.8566362939588766,1.1344364920575745,0.11795681121836257,0.29249570499805017,-0.9065615633532357,0.28020515788770384,0.12373890912297889,-0.1175136273906034,0.15517075399124095,-2.1147644285957448,0.09922660582978676,11.533171241617021,0.0,20.02522888509447,0.030561701496819676,421.5172035247906,-7.33987202989406
2018-09-11 18:27:34.147975206,-17.1800003052,-30.3573226929,-22.0499992371,-22.1772289276,-134.0,-118.15279388399999,False,0.854434755211566,1.1373517823697448,0.11987227679098554,0.28362928963174205,-0.9072801314950774,0.2849887165717583,0.15551118728978738,-0.11740113447927404,0.1737704340192886,-2.144710181957447,0.011993324297871907,11.535775220170212,0.0,20.14903705030468,0.03321702083371261,421.0312796343464,-7.563650146647796
2018-09-11 18:27:34.214586020,-17.1599998474,-30.3573226929,-22.289999008200002,-22.1772289276,-134.0,-118.15279388399999,False,0.8522332164642553,1.140267072681915,0.12178774236360852,0.274762874265434,-0.9079986996369191,0.2897722752558128,0.18728346545659588,-0.11728864156794468,0.19237011404733625,-2.1746559353191492,-0.07523995723404295,11.538379198723403,0.0,20.272845215514895,0.035872340170605546,420.5453557439021,-7.787428263401532
2018-09-11 18:27:34.247532368,-15.269999504100001,-30.3573226929,-22.459999084499998,-22.1772289276,-134.0,-118.15279388399999,False,0.8500316777169447,1.1431823629940852,0.1237032079362315,0.2658964588991259,-0.9087172677787608,0.29455583393986723,0.21905574362340438,-0.11717614865661531,0.2109697940753839,-2.2046016886808513,-0.16247323876595782,11.540983177276596,0.0,20.39665338072511,0.03852765950749848,420.05943185345785,-8.011206380155269
2018-09-11 18:27:34.311084270,-15.2599992752,-30.3573226929,-22.729999542199998,-22.1772289276,-134.0,-118.15279388399999,False,0.847830138969634,1.1460976533062555,0.12561867350885447,0.25703004353281783,-0.9094358359206025,0.29933939262392173,0.25082802179021285,-0.11706365574528596,0.22956947410343154,-2.2345474420425533,-0.24970652029787266,11.543587155829787,0.0,20.52046154593532,0.04118297884439141,419.57350796301364,-8.234984496909004
2018-09-11 18:27:34.378779650,-13.2599992752,-30.3573226929,-23.0199985504,-22.1772289276,-134.0,-118.15279388399999,False,0.8458454306408341,1.1482357689737448,0.12753413908147745,0.24816362816650975,-0.9101544040624442,0.3041229513079762,0.28260029995702135,-0.1169511628339566,0.24816915413147922,-2.2644931954042553,-0.3369398018297875,11.546191134382978,0.0,20.644269711145533,0.043838298181284346,419.08758407256937,-8.45876261366274
2018-09-11 18:27:34.442875624,-13.2599992752,-30.3573226929,-23.2999992371,-22.1772289276,-134.0,-118.15279388399999,False,0.8439570913869276,1.1500284736880426,0.12944960465410044,0.23929721280020166,-0.9108729722042859,0.3089065099920307,0.31437257812382985,-0.11683866992262723,0.26676883415952685,-2.2944389487659573,-0.42417308336170234,11.54879511293617,0.0,20.768077876355747,0.04649361751817729,418.6016601821251,-8.682540730416477
2018-09-11 18:27:34.472845554,-13.2599992752,-21.064306259200002,-23.2999992371,-22.5919342041,-134.0,-123.887649536,False,0.8420687521330212,1.1518211784023404,0.13136507022672342,0.23043079743389358,-0.9115915403461275,0.3136900686760851,0.34614485629063835,-0.11672617701129787,0.2853685141875745,-2.32438470212766,-0.5114063648936172,11.551399091489362,0.0,20.891886041565957,0.04914893685507022,418.1157362916809,-8.906318847170212
2018-09-11 18:27:34.518461226,-11.469999313399999,-21.064306259200002,-23.579999923699997,-22.5919342041,-134.0,-123.887649536,False,0.8401804128791149,1.1536138831166385,0.13271788705833873,0.22215678521572169,-0.9114544446442161,0.31910318445505875,0.3373096983483625,-0.11677236500568765,0.2746949190659846,-2.362292620680851,-0.48628464872340404,11.36998858561702,0.0,21.006227413786213,0.05360851163880827,417.6162810369115,-8.989005347719182
2018-09-11 18:27:34.581336498,-9.63000011444,-21.064306259200002,-23.7699985504,-22.5919342041,-134.0,-123.887649536,False,0.8382920736252085,1.1554065878309363,0.13380530354042214,0.2141622084447838,-0.9109137339216663,0.32481326112786213,0.3093200894112357,-0.11689340248390723,0.25021317528890546,-2.4039562775319148,-0.4081652921276594,11.101778794638298,0.0,21.11610331761498,0.058919150312567586,417.1104430631209,-9.00513919911496
2018-09-11 18:27:34.607464552,-9.63000011444,-21.064306259200002,-23.859998703000002,-22.5919342041,-134.0,-123.887649536,False,0.8364037343713021,1.1571992925452341,0.13489272002250555,0.20616763167384594,-0.9103730231991165,0.33052333780066556,0.2813304804741089,-0.1170144399621268,0.22573143151182634,-2.4456199343829788,-0.33004593553191475,10.833569003659575,0.0,21.225979221443744,0.0642297889863269,416.6046050893302,-9.02127305051074
2018-09-11 18:27:34.673997879,-7.98999977112,-21.064306259200002,-23.239999771100003,-22.5919342041,-134.0,-123.887649536,False,0.8345153951173957,1.158991997259532,0.13598013650458896,0.1981730549029081,-0.9098323124765668,0.33623341447346894,0.2533408715369821,-0.11713547744034639,0.2012496877347472,-2.4872835912340427,-0.2519265789361701,10.565359212680852,0.0,21.33585512527251,0.06954042766008622,416.0987671155396,-9.037406901906518
2018-09-11 18:27:34.734061480,-7.98999977112,-21.064306259200002,-23.25,-22.5919342041,-134.0,-123.887649536,False,0.8326270558634894,1.1607847019738298,0.13706755298667236,0.19017847813197022,-0.909291601754017,0.34194349114627237,0.22535126259985527,-0.11725651491856595,0.17676794395766804,-2.5289472480851063,-0.17380722234042545,10.297149421702128,0.0,21.445731029101275,0.07485106633384553,415.5929291417489,-9.053540753302297
2018-09-11 18:27:34.845574617,-6.25,-21.064306259200002,-22.6000003815,-22.5919342041,-134.0,-123.887649536,False,0.830738716609583,1.1625774066881278,0.13815496946875577,0.18218390136103235,-0.9087508910314672,0.34765356781907575,0.19736165366272848,-0.11737755239678553,0.15228620018058892,-2.5706109049361703,-0.0956878657446808,10.028939630723405,0.0,21.55560693293004,0.08016170500760485,415.0870911679583,-9.069674604698077
2018-09-11 18:27:34.874009132,-4.9499998092699995,-21.064306259200002,-21.909999847399998,-22.5919342041,-134.0,-123.887649536,False,0.8294186289286298,1.1639951021399149,0.13924238595083915,0.17418932459009448,-0.9082101803089174,0.3533636444918792,0.16937204472560166,-0.11749858987500511,0.12780445640350976,-2.612274561787234,-0.01756850914893615,9.760729839744682,0.0,21.66548283675881,0.08547234368136417,414.5812531941677,-9.085808456093856
2018-09-11 18:27:34.927779675,-4.9499998092699995,-12.6735992432,-21.920000076300003,-21.9868907928,-134.0,-130.60040283200001,False,0.8283993803157106,1.1652142632762554,0.1403313359181864,0.166542224874703,-0.9078030184259839,0.35836781986285704,0.1472439766183651,-0.11688455206964579,0.10608936011749141,-2.6493311796595744,0.06439004659574471,9.55509899489362,0.0,21.77024969868587,0.09097872692221752,414.08637687472344,-9.10844877364521
2018-09-11 18:27:34.986294508,-3.6899998188,-12.6735992432,-21.1299991608,-21.9868907928,-134.0,-130.60040283200001,False,0.8273801317027915,1.1664334244125958,0.1414291534307549,0.16090444900225365,-0.9081681172243089,0.3592900442276264,0.15901090548397193,-0.11201986153750418,0.10037270367108529,-2.6597470938723404,0.16854918872340424,9.711337708085107,0.0,21.8454729704857,0.09761702439887557,413.65488751302127,-9.168713438965753
2018-09-11 18:27:35.047042131,-2.37999987602,-12.6735992432,-20.3899993896,-21.9868907928,-134.0,-130.60040283200001,False,0.8263608830898723,1.1676525855489361,0.14252697094332342,0.15526667312980427,-0.908533216022634,0.36021226859239575,0.17077783434957872,-0.10715517100536257,0.09465604722467916,-2.6701630080851064,0.27270833085106383,9.867576421276597,0.0,21.92069624228553,0.1042553218755336,413.22339815131915,-9.228978104286298
2018-09-11 18:27:35.104987621,-2.37999987602,-12.6735992432,-20.3899993896,-21.9868907928,-134.0,-130.60040283200001,False,0.8253416344769532,1.1688717466852767,0.14362478845589194,0.1496288972573549,-0.9088983148209592,0.3611344929571651,0.18254476321518553,-0.10229048047322094,0.08893939077827304,-2.6805789222978724,0.37686747297872336,10.023815134468085,0.0,21.995919514085358,0.11089361935219164,412.791908789617,-9.289242769606844
2018-09-11 18:27:35.171318293,-1.14999997616,-12.6735992432,-19.6800003052,-21.9868907928,-134.0,-130.60040283200001,False,0.8243223858640341,1.170090907821617,0.14472260596846043,0.14399112138490555,-0.9092634136192842,0.3620567173219345,0.19431169208079235,-0.09742578994107932,0.08322273433186692,-2.6909948365106384,0.4810266151063829,10.180053847659575,0.0,22.07114278588519,0.11753191682884968,412.3604194279149,-9.349507434927387
2018-09-11 18:27:35.237554789,-1.14999997616,-12.6735992432,-19.6899986267,-21.9868907928,-134.0,-130.60040283200001,False,0.8233031372511149,1.1713100689579574,0.14582042348102894,0.13835334551245618,-0.9096285124176093,0.36297894168670386,0.20607862094639914,-0.09256109940893771,0.07750607788546078,-2.7014107507234044,0.5851857572340424,10.336292560851065,0.0,22.146366057685018,0.12417021430550773,411.9289300662128,-9.409772100247933
2018-09-11 18:27:35.268519878,-0.08999999612569999,-12.6735992432,-18.9699993134,-21.9868907928,-134.0,-130.60040283200001,False,0.8222838886381957,1.1725292300942978,0.14691824099359746,0.1327155696400068,-0.9099936112159345,0.3639011660514732,0.21784554981200593,-0.0876964088767961,0.07178942143905465,-2.7118266649361704,0.6893448993617021,10.492531274042554,0.0,22.22158932948485,0.13080851178216577,411.49744070451067,-9.470036765568477
2018-09-11 18:27:35.350043535,3.79999995232,-7.33576154709,-18.2799987793,-21.1944484711,-133.0,-132.334640503,False,0.8212646400252765,1.1737483912306383,0.14801605850616595,0.12707779376755746,-0.9103587100142595,0.36482339041624257,0.22961247867761275,-0.08283171834465448,0.06607276499264852,-2.7222425791489364,0.7935040414893616,10.648769987234044,0.0,22.296812601284678,0.1374468092588238,411.06595134280855,-9.530301430889022
2018-09-11 18:27:35.365532160,3.8099999427800006,-7.33576154709,-18.2799987793,-21.1944484711,-133.0,-132.334640503,False,0.8198574413133617,1.1751370326474893,0.1488491649373387,0.11948899583144308,-0.9111535260845506,0.36472775871077534,0.25748875275606037,-0.0844711586832914,0.06262747496996597,-2.7278511483404255,0.7686660922127663,10.78978544119149,0.0,22.371451961434467,0.14408510673550634,410.6589716220664,-9.46992803208783
2018-09-11 18:27:35.446234465,3.8099999427800006,-7.33576154709,-18.2799987793,-21.1944484711,-133.0,-132.334640503,False,0.8182077737895744,1.1766315992396597,0.14951682694263915,0.11068080910553807,-0.9122169154498204,0.36399596696141023,0.2954333675925335,-0.09017568081616492,0.06060178896211065,-2.730455126893617,0.663204960808511,10.92128635812766,0.0,22.445726376802977,0.15072340421220423,410.26731042692427,-9.334155843210553
2018-09-11 18:27:35.483877897,8.550000190730001,-7.33576154709,-17.6299991608,-21.1944484711,-131.0,-132.334640503,False,0.8165581062657873,1.1781261658318298,0.15018448894793957,0.10187262237963304,-0.9132803048150901,0.3632641752120451,0.33337798242900674,-0.09588020294903846,0.05857610295425533,-2.7330591054468085,0.5577438294042557,11.05278727506383,0.0,22.520000792171487,0.1573617016889021,409.8756492317821,-9.198383654333277
2018-09-11 18:27:35.547802448,12.989999771099999,-7.33576154709,-16.9499988556,-21.1944484711,-129.0,-132.334640503,False,0.814908438742,1.179620732424,0.15085215095324,0.09306443565372803,-0.91434369418036,0.36253238346268,0.3713225972654799,-0.10158472508191198,0.05655041694640001,-2.735663084,0.4522826980000004,11.184288192,0.0,22.594275207539997,0.16399999916559996,409.48398803664,-9.062611465456001
2018-09-11 18:27:35.645690918,13.0499992371,-7.33576154709,-16.9499988556,-21.1944484711,-129.0,-132.334640503,False,0.8132587712182128,1.1811152990161702,0.15151981295854042,0.08425624892782302,-0.9154070835456297,0.3618005917133149,0.4092672121019531,-0.1072892472147855,0.054524730938544694,-2.7382670625531915,0.34682156659574515,11.315789108936169,0.0,22.66854962290851,0.17063829664229782,409.0923268414979,-8.926839276578724
2018-09-11 18:27:35.696629763,16.859998703,0.170044660568,-16.3999996185,-18.9080314636,-127.0,-132.796585083,False,0.8116091036944256,1.1826098656083404,0.15218747496384086,0.07544806220191799,-0.9164704729108996,0.3610687999639498,0.4472118269384263,-0.11299376934765903,0.05249904493068938,-2.740871041106383,0.24136043519148986,11.44729002587234,0.0,22.74282403827702,0.1772765941189957,408.7006656463558,-8.791067087701448
2018-09-11 18:27:35.748252630,16.8799991608,0.170044660568,-16.3999996185,-18.9080314636,-127.0,-132.796585083,False,0.8099594361706384,1.1841044322005108,0.15285513696914127,0.06663987547601298,-0.9175338622761693,0.3603370082145847,0.48515644177489947,-0.11869829148053257,0.05047335892283406,-2.7434750196595745,0.13589930378723458,11.57879094280851,0.0,22.81709845364553,0.18391489159569357,408.30900445121364,-8.65529489882417
2018-09-11 18:27:35.770307779,20.4300003052,0.170044660568,-15.989999771099999,-18.9080314636,-125.0,-132.796585083,False,0.8083097686468511,1.185598998792681,0.15355423309769275,0.057595709330914346,-0.9185016736649413,0.35968554413462556,0.5191498723944095,-0.12459400241678889,0.04904150629299888,-2.746295996425532,0.03846710625531918,11.717669798978722,0.0,22.889983475104852,0.19022127416557527,407.92597336744257,-8.541382778247922
2018-09-11 18:27:35.851754189,20.4799995422,0.170044660568,-15.9799995422,-18.9080314636,-123.0,-132.796585083,False,0.806660101123064,1.1870935653848511,0.15459910458200596,0.045955769574685904,-0.9184181273122366,0.35991768441813193,0.5096802766273217,-0.13259279019025613,0.054141820821385606,-2.751503953531915,0.029353181319148956,11.937705986723403,0.0,22.947585163563065,0.19287659276047914,407.6378735087532,-8.667931408983003
2018-09-11 18:27:35.873193741,23.340000152600002,0.170044660568,-15.670000076300001,-18.9080314636,-123.0,-132.796585083,False,0.805578471584915,1.1880899896857446,0.15564397606631913,0.03431582981845746,-0.9183345809595319,0.3601498247016383,0.5002106808602341,-0.1405915779637234,0.05924213534977234,-2.756711910638298,0.02023925638297873,12.157742174468083,0.0,23.005186852021275,0.19553191135538298,407.34977365006387,-8.794480039718085
2018-09-11 18:27:35.925003767,23.4300003052,0.170044660568,-15.6599998474,-18.9080314636,-123.0,-132.796585083,False,0.8049134032362342,1.1887211096397021,0.15668884755063234,0.022675890062229018,-0.9182510346068272,0.3603819649851447,0.4907410850931464,-0.14859036573719064,0.06434244987815907,-2.761919867744681,0.011125331446808502,12.377778362212766,0.0,23.062788540479488,0.19818722995028681,407.0616737913745,-8.921028670453165
2018-09-11 18:27:35.971349001,25.8999996185,0.170044660568,-15.4099998474,-18.9080314636,-121.0,-132.796585083,False,0.8042483348875532,1.1893522295936596,0.1577337190349455,0.011035950306000575,-0.9181674882541225,0.36061410526865106,0.48127148932605873,-0.15658915351065789,0.06944276440654579,-2.767127824851064,0.002011406510638275,12.597814549957446,0.0,23.1203902289377,0.20084254854519065,406.77357393268517,-9.047577301188246
2018-09-11 18:27:36.032356261,25.979999542199998,10.1880331039,-15.399999618499999,-15.97016716,-121.0,-134.416885376,False,0.8035832665388724,1.189983349547617,0.15877859051925872,-0.0006039894502278681,-0.9180839419014178,0.36084624555215744,0.47180189355897106,-0.16458794128412513,0.07454307893493252,-2.772335781957447,-0.007102518425531952,12.817850737702129,0.0,23.177991917395914,0.2034978671400945,406.48547407399576,-9.174125931923328
2018-09-11 18:27:36.098564386,27.8799991608,10.1880331039,-15.239999771099999,-15.97016716,-120.0,-134.416885376,False,0.8029181981901915,1.1906144695015746,0.1598234620035719,-0.012243929206456318,-0.9180003955487132,0.3610783858356638,0.4623322977918834,-0.1725867290575924,0.07964339346331925,-2.7775437390638302,-0.01621644336170218,13.03788692544681,0.0,23.235593605854127,0.20615318573499833,406.1973742153064,-9.300674562658408
2018-09-11 18:27:36.121717215,27.920000076300003,10.1880331039,-15.2299995422,-15.97016716,-120.0,-134.416885376,False,0.8022531298415106,1.1912455894555318,0.1608683334878851,-0.02388386896268476,-0.9179168491960085,0.3613105261191702,0.4528627020247957,-0.18058551683105964,0.08474370799170597,-2.7827516961702132,-0.025330368297872406,13.257923113191492,0.0,23.29319529431234,0.20880850432990217,405.90927435661706,-9.42722319339349
2018-09-11 18:27:36.225653648,29.8999996185,10.1880331039,-15.179999351500001,-15.97016716,-118.0,-134.416885376,False,0.8015880614928298,1.1918767094094893,0.16256830619990895,-0.035315974796471306,-0.9175145718924052,0.36051638184922974,0.43715423487607225,-0.1686010415443399,0.07265572265745368,-2.7728866235744682,0.04163861859574554,13.231766482468084,0.0,23.33849290887234,0.21146382401550556,405.6197092386375,-9.200704534004515
2018-09-11 18:27:36.289958954,31.1999988556,10.1880331039,-15.179999351500001,-15.97016716,-116.0,-134.416885376,False,0.8009229931441489,1.1925078293634468,0.1648015008414647,-0.046578913484084244,-0.9168528624194655,0.35888688968694893,0.4163676166027616,-0.14035111958072427,0.04657726069082119,-2.7507528058723407,0.17053555697872422,13.005220348340425,0.0,23.373775579561702,0.2141191445888877,405.3289514677473,-8.686805522188992
2018-09-11 18:27:36.334207058,31.1999988556,10.1880331039,-15.170000076300001,-15.97016716,-115.0,-134.416885376,False,0.8002579247954681,1.1931389493174043,0.16703469548302044,-0.05784185217169717,-0.916191152946526,0.35725739752466806,0.395580998329451,-0.1121011976171086,0.020498798724188694,-2.7286189881702128,0.2994324953617029,12.778674214212764,0.0,23.409058250251064,0.2167744651622698,405.03819369685704,-8.172906510373469
2018-09-11 18:27:36.373080015,32.2799987793,10.1880331039,-15.149999618499999,-15.97016716,-115.0,-134.416885376,False,0.800145393807017,1.1936218732930637,0.1692678901245762,-0.06910479085931011,-0.9155294434735863,0.3556279053623872,0.37479438005614035,-0.08385127565349294,-0.005579663242443814,-2.7064851704680852,0.4283294337446816,12.552128080085105,0.0,23.444340920940423,0.21942978573565192,404.74743592596684,-7.659007498557946
2018-09-11 18:27:36.444354773,32.25,20.0566539764,-15.130000114400001,-14.2241764069,-115.0,-134.38714599600002,False,0.8005064662701915,1.193977772144468,0.17150108476613193,-0.08036772954692303,-0.9148677340006468,0.35399841320010633,0.3540077617828297,-0.055601353689877286,-0.03165812520907631,-2.6843513527659577,0.5572263721276602,12.325581945957445,0.0,23.479623591629785,0.22208510630903405,404.45667815507664,-7.145108486742423
2018-09-11 18:27:36.488648891,33.6499977112,20.0566539764,-15.079999923699999,-14.2241764069,-113.0,-134.38714599600002,False,0.8008675387333659,1.1943336709958723,0.17373427940768768,-0.09163066823453596,-0.9142060245277072,0.35236892103782547,0.3332211435095191,-0.027351431726261644,-0.057736587175708814,-2.6622175350638297,0.6861233105106389,12.099035811829784,0.0,23.514906262319148,0.22474042688241616,404.16592038418645,-6.6312094749269
2018-09-11 18:27:36.531929970,33.6399993896,20.0566539764,-15.059999465899999,-14.2241764069,-112.0,-134.38714599600002,False,0.8012286111965404,1.1946895698472766,0.17596747404924343,-0.1028936069221489,-0.9135443150547676,0.35073942887554466,0.31243452523620846,0.0008984902373539994,-0.08381504914234131,-2.640083717361702,0.8150202488936176,11.872489677702125,0.0,23.55018893300851,0.2273957474557983,403.8751626132962,-6.117310463111377
2018-09-11 18:27:36.612612724,34.4899978638,20.0566539764,-14.880000114400001,-14.2241764069,-112.0,-134.38714599600002,False,0.8015896836597148,1.1950454686986807,0.1781900471389898,-0.11405417383318725,-0.9128984044156416,0.34906859390426803,0.2923610662399822,0.02818236678201676,-0.10961099709609792,-2.6181251674468085,0.9397608368936167,11.648597598638297,0.0,23.584817600635827,0.23002553606254636,403.58700906967323,-5.6165930837233455
2018-09-11 18:27:36.639525414,34.5,20.0566539764,-14.869999885599999,-14.2241764069,-112.0,-134.38714599600002,False,0.8019507561228894,1.195401367550085,0.17987092108645875,-0.11999378013892342,-0.9130582343010102,0.3452892756742085,0.30865873037505287,0.006197926960093022,-0.12099873039318729,-2.605105274680851,0.8525275553617018,11.560062327829785,0.0,23.586092112098978,0.23135319437095828,403.4316711166792,-5.788138958137269
2018-09-11 18:27:36.734536409,36.5799980164,25.1933078766,-14.679999351500001,-14.3051204681,-109.0,-131.87533569299998,False,0.8023118285860639,1.1957572664014893,0.18155179503392768,-0.1259333864446596,-0.9132180641863787,0.34150995744414886,0.3249563945101235,-0.01578651286183072,-0.13238646369027665,-2.5920853819148935,0.7652942738297869,11.471527057021275,0.0,23.587366623562126,0.2326808526793702,403.27633316368514,-5.959684832551193
2018-09-11 18:27:36.808104038,36.9799995422,25.1933078766,-14.3899993896,-14.3051204681,-108.0,-131.87533569299998,False,0.8026729010492383,1.1961131652528934,0.18323266898139662,-0.13187299275039577,-0.9133778940717472,0.3377306392140893,0.3412540586451941,-0.03777095268375446,-0.14377419698736602,-2.579065489148936,0.678060992297872,11.382991786212765,0.0,23.588641135025277,0.2340085109877821,403.1209952106911,-6.131230706965115
2018-09-11 18:27:36.849133253,36.9799995422,25.1933078766,-14.380000114400001,-14.3051204681,-107.0,-131.87533569299998,False,0.8030339735124128,1.1964690641042977,0.18491354292886555,-0.13781259905613194,-0.9135377239571157,0.33395132098402974,0.35755172278026476,-0.05975539250567819,-0.15516193028445535,-2.5660455963829785,0.5908277107659572,11.294456515404255,0.0,23.589915646488425,0.23533616929619403,402.96565725769705,-6.302776581379039
2018-09-11 18:27:36.891909122,37.0499992371,25.1933078766,-14.130000114400001,-14.3051204681,-107.0,-131.87533569299998,False,0.8032601713221064,1.196918427278851,0.1865944168763345,-0.1437522053618681,-0.9136975538424843,0.3301720027539702,0.37384938691533537,-0.08173983232760193,-0.16654966358154472,-2.553025703617021,0.5035944292340423,11.205921244595743,0.0,23.591190157951576,0.23666382760460594,402.810319304703,-6.474322455792962
2018-09-11 18:27:36.927318811,37.0400009155,25.1933078766,-14.109999656700001,-14.3051204681,-107.0,-131.87533569299998,False,0.8033514944783191,1.197461254776553,0.18827529082380343,-0.14969181166760426,-0.9138573837278527,0.3263926845239106,0.390147051050406,-0.10372427214952568,-0.17793739687863408,-2.5400058108510635,0.4163611477021274,11.117385973787233,0.0,23.592464669414724,0.23799148591301786,402.65498135170895,-6.645868330206885
2018-09-11 18:27:36.966637135,38.7399978638,25.1933078766,-13.7999992371,-14.3051204681,-104.0,-131.87533569299998,False,0.8034428176345318,1.1980040822742553,0.18995616477127233,-0.15563141797334046,-0.9140172136132213,0.322613366293851,0.40644471518547665,-0.1257087119714494,-0.18932513017572344,-2.5269859180851064,0.3291278661702126,11.028850702978723,0.0,23.593739180877872,0.23931914422142977,402.4996433987149,-6.817414204620809
2018-09-11 18:27:37.050041676,38.7700004578,25.1933078766,-13.779999733,-14.3051204681,-103.0,-131.87533569299998,False,0.8035341407907447,1.1985469097719572,0.19161180638505276,-0.1638755120513728,-0.9137927670556246,0.31760877694493866,0.40307596135659485,-0.13662551013694724,-0.18877263455917156,-2.515234630255319,0.26853528829787227,10.953635784,0.0,23.59009830394817,0.24258722910260086,402.28803539506214,-6.784585069294408
2018-09-11 18:27:37.076133013,38.75,34.1939468384,-13.460000038099999,-13.8108310699,-103.0,-127.71803283700001,False,0.8036254639469574,1.1990897372696594,0.19324088764758213,-0.17454538273182213,-0.9131638189791175,0.31131442852354974,0.3790057149340791,-0.13589215919041786,-0.1756514769282606,-2.504818716042553,0.23598555638297866,10.892442288,0.0,23.581283333973364,0.2478978682708868,402.017195759137,-6.5366243447676675
2018-09-11 18:27:37.151251554,42.6800003052,34.1939468384,-13.2599992752,-13.8108310699,-97.0,-127.71803283700001,False,0.8037167871031702,1.1996325647673616,0.1948699689101115,-0.1852152534122715,-0.9125348709026102,0.3050200801021608,0.3549354685115634,-0.1351588082438885,-0.16253031929734962,-2.494402801829787,0.20343582446808506,10.831248791999998,0.0,23.572468363998553,0.2532085074391728,401.7463561232119,-6.288663620240928
2018-09-11 18:27:37.209960938,42.719997406,34.1939468384,-13.239999771099999,-13.8108310699,-97.0,-127.71803283700001,False,0.8038081102593829,1.2001753922650638,0.19649905017264085,-0.19588512409272085,-0.9119059228261029,0.2987257316807719,0.3308652220890477,-0.13442545729735916,-0.14940916166643864,-2.483986887617021,0.17088609255319145,10.770055295999999,0.0,23.563653394023746,0.2585191466074587,401.4755164872868,-6.040702895714187
2018-09-11 18:27:37.247748852,42.4599990845,34.1939468384,-13.170000076300001,-13.8108310699,-96.0,-127.71803283700001,False,0.8038994334155957,1.200718219762766,0.19812813143517022,-0.20655499477317021,-0.9112769747495957,0.29243138325938295,0.3067949756665319,-0.1336921063508298,-0.13628800403552765,-2.4735709734042555,0.13833636063829785,10.7088618,0.0,23.554838424048935,0.2638297857757447,401.20467685136174,-5.792742171187447
2018-09-11 18:27:37.288922071,42.469997406,34.1939468384,-13.170000076300001,-13.8108310699,-96.0,-127.71803283700001,False,0.8039907565718084,1.2012610472604681,0.19975721269769958,-0.21722486545361958,-0.9106480266730885,0.286137034837994,0.28272472924401615,-0.13295875540430044,-0.1231668464046167,-2.4631550591914895,0.10578662872340425,10.647668304,0.0,23.546023454074128,0.2691404249440306,400.9338372154366,-5.544781446660706
2018-09-11 18:27:37.327822685,42.4599990845,34.1939468384,-13.170000076300001,-13.8108310699,-96.0,-127.71803283700001,False,0.8040950198593404,1.2020671082783403,0.20138629396022895,-0.2278947361340689,-0.9100190785965813,0.2798426864166051,0.25865448282150044,-0.1322254044577711,-0.11004568877370573,-2.4527391449787235,0.07323689680851064,10.586474808,0.0,23.537208484099317,0.27445106411231657,400.6629975795115,-5.296820722133966
2018-09-11 18:27:37.359783411,43.61999893189999,34.1939468384,-13.1599998474,-13.8108310699,-92.0,-127.71803283700001,False,0.8042143799667446,1.2031802750697447,0.2030153752227583,-0.2385646068145183,-0.909390130520074,0.27354833799521616,0.2345842363989847,-0.1314920535112417,-0.09692453114279474,-2.4423232307659575,0.04068716489361704,10.525281311999999,0.0,23.52839351412451,0.2797617032806025,400.3921579435864,-5.0488599976072255
2018-09-11 18:27:37.443766117,43.5999984741,34.1939468384,-13.149999618499999,-13.8108310699,-92.0,-127.71803283700001,False,0.8043337400741489,1.2042934418611488,0.20210715016603575,-0.24268802085417276,-0.9099371307318987,0.26833109646029357,0.2198797818196451,-0.13132225887571916,-0.1131951776590848,-2.4331508832340427,0.12378913429787239,10.431755082297872,0.0,23.540862689743488,0.28253617276529447,400.1238492148136,-5.0829596129884
2018-09-11 18:27:37.464208126,43.590000152600005,36.673027038600004,-12.949999809300001,-13.3882694244,-91.0,-123.22013855,False,0.8044531001815531,1.2054066086525532,0.20107972279901276,-0.2465038832395617,-0.9105393768364638,0.26316445726231913,0.20561533088394465,-0.13117894004004257,-0.13084664718900174,-2.4240369582978722,0.21232440510638317,10.336709865106382,0.0,23.55433179166553,0.2851914933386766,399.8556593877192,-5.130310385278
2018-09-11 18:27:37.526716470,43.6100006104,36.673027038600004,-12.949999809300001,-13.3882694244,-91.0,-123.22013855,False,0.8045724602889575,1.2065197754439574,0.2000522954319898,-0.2503197456249507,-0.911141622941029,0.25799781806434463,0.1913508799482442,-0.13103562120436596,-0.14849811671891872,-2.4149230333617018,0.30085967591489393,10.241664647914893,0.0,23.567800893587574,0.28784681391205874,399.5874695606247,-5.1776611575676
2018-09-11 18:27:37.566532373,43.61999893189999,36.673027038600004,-12.050000190699999,-13.3882694244,-90.0,-123.22013855,False,0.8046918203963617,1.2076329422353618,0.1990248680649668,-0.25413560801033963,-0.911743869045594,0.2528311788663702,0.17708642901254376,-0.13089230236868937,-0.16614958624883566,-2.4058091084255318,0.38939494672340474,10.146619430723403,0.0,23.581269995509615,0.2905021344854409,399.3192797335302,-5.2250119298572
2018-09-11 18:27:37.667695522,43.6899986267,36.673027038600004,-9.960000038150001,-13.3882694244,-82.0,-123.22013855,False,0.804811180503766,1.2087461090267662,0.19799744069794384,-0.2579514703957286,-0.9123461151501592,0.2476645396683957,0.1628219780768433,-0.13074898353301276,-0.1838010557787526,-2.3966951834893613,0.4779302175319155,10.051574213531914,0.0,23.594739097431656,0.293157455058823,399.0510899064357,-5.2723627021468005
2018-09-11 18:27:37.722789288,43.719997406000005,36.673027038600004,-9.949999809269999,-13.3882694244,-82.0,-123.22013855,False,0.8049305406111702,1.2098592758181703,0.19697001333092085,-0.2617673327811175,-0.9129483612547243,0.24249790047042122,0.14855752714114284,-0.13060566469733617,-0.20145252530866958,-2.3875812585531913,0.5664654883404263,9.956528996340424,0.0,23.6082081993537,0.29581277563220515,398.78290007934123,-5.3197134744364005
2018-09-11 18:27:37.766914606,43.7399978638,36.673027038600004,-7.9499998092699995,-13.3882694244,-81.0,-123.22013855,False,0.8050499007185745,1.2109724426095747,0.19594258596389788,-0.26558319516650647,-0.9135506073592894,0.23733126127244675,0.1342930762054424,-0.13046234586165956,-0.21910399483858656,-2.378467333617021,0.6550007591489371,9.861483779148935,0.0,23.621677301275742,0.2984680962055873,398.5147102522468,-5.367064246726001
