time,roll_commanded,roll_measured,pitch_commanded,pitch_measured,yaw_commanded,yaw_measured,label,wind_estimation_linear_x,wind_estimation_linear_y,orientation_x,orientation_y,orientation_z,orientation_w,angular_velocity_x,angular_velocity_y,angular_velocity_z,linear_acceleration_x,linear_acceleration_y,linear_acceleration_z,airspeed,groundspeed,throttle,altitude,climb
2018-09-11 16:03:18.846103907,41.9500007629,37.3013114929,-20.079999923699997,-21.0012950897,25.0,-35.5745239258,False,0.49634221709799997,1.07857153511,-0.0119670504425,-0.350184049424,-0.772559086031,-0.529509565374,0.099484667182,-0.147398293018,-0.205262422562,-2.67721545,0.81395195,11.434553900000001,0.0,20.897920608499998,0.0399999991059,437.679992676,-5.90029573441
2018-09-11 16:03:18.900468111,41.969997406,37.3013114929,-20.079999923699997,-21.0012950897,26.0,-35.5745239258,False,0.49837493211097367,1.0848305830917446,-0.015334025152533388,-0.3489854853373923,-0.7687135814001669,-0.5353916986011936,0.09425938821001102,-0.13663198041369198,-0.20578127325811352,-2.691442459766277,0.702722600918197,11.368592309265443,0.0,20.883363962555592,0.0399999991059,437.35818934892484,-5.784088900574174
2018-09-11 16:03:18.973826647,42.0200004578,36.277606964099995,-20.1000003815,-20.6317996979,26.0,-27.971660614,False,0.5004076471239474,1.0910896310734892,-0.018700999862566778,-0.34778692125078464,-0.7648680767693339,-0.5412738318283873,0.08903410923802203,-0.12586566780938396,-0.20630012395422703,-2.705669469532554,0.591493251836394,11.302630718530885,0.0,20.868807316611182,0.0399999991059,437.03638602184975,-5.667882066738347
2018-09-11 16:03:19.000311852,42.0400009155,36.277606964099995,-20.0900001526,-20.6317996979,26.0,-27.971660614,False,0.5024403621369211,1.0973486790552338,-0.022067974572600166,-0.34658835716417696,-0.7610225721385008,-0.547155965055581,0.08380883026603306,-0.11509935520507597,-0.20681897465034058,-2.7198964792988316,0.480263902754591,11.236669127796327,0.0,20.854250670666776,0.0399999991059,436.7145826947746,-5.551675232902521
2018-09-11 16:03:19.027113914,42.090000152600005,36.277606964099995,-20.0699996948,-20.6317996979,27.0,-27.971660614,False,0.5044730771498949,1.1036077270369784,-0.025434949282633554,-0.3453897930775693,-0.7571770675076678,-0.5530380982827746,0.07858355129404407,-0.10433304260076795,-0.2073378253464541,-2.7341234890651087,0.36903455367278803,11.17070753706177,0.0,20.83969402472237,0.0399999991059,436.3927793676995,-5.4354683990666945
2018-09-11 16:03:19.068367720,42.159999847399995,36.277606964099995,-20.0299987793,-20.6317996979,27.0,-27.971660614,False,0.5065057921628685,1.109866775018723,-0.028801923992666942,-0.3441912289909616,-0.7533315628768347,-0.5589202315099682,0.0733582723220551,-0.09356672999645993,-0.2078566760425676,-2.748350498831386,0.257805204590985,11.104745946327213,0.0,20.825137378777963,0.0399999991059,436.0709760406244,-5.319261565230868
2018-09-11 16:03:19.136312485,42.2299995422,36.277606964099995,-20.079999923699997,-20.6317996979,27.0,-27.971660614,False,0.5085385071758423,1.1161258230004676,-0.03216889870270033,-0.3429926649043539,-0.7494860582460016,-0.5648023647371618,0.06813299335006612,-0.08280041739215192,-0.20837552673868112,-2.762577508597663,0.14657585550918206,11.038784355592655,0.0,20.810580732833554,0.0399999991059,435.7491727135492,-5.203054731395041
2018-09-11 16:03:19.170052052,42.2299995422,36.277606964099995,-20.1000003815,-20.6317996979,27.0,-27.971660614,False,0.510571222188816,1.122384870982212,-0.03553587341273372,-0.3417941008177462,-0.7456405536151686,-0.5706844979643555,0.06290771437807713,-0.07203410478784392,-0.20889437743479464,-2.77680451836394,0.03534650642737913,10.972822764858098,0.0,20.796024086889147,0.0399999991059,435.42736938647414,-5.086847897559215
2018-09-11 16:03:19.235710621,42.219997406,36.277606964099995,-20.1199989319,-20.6317996979,28.0,-27.971660614,False,0.5126039372017897,1.1286439189639565,-0.03804579254707863,-0.3417996319720901,-0.7415443967629081,-0.5759402267473421,0.06947067782954991,-0.06435372679184458,-0.2122574491377529,-2.7764443409015027,0.019744273622704443,10.93171341903172,0.0,20.78355032296778,0.0399999991059,435.1617591103089,-5.044139231580668
2018-09-11 16:03:19.259643078,42.2299995422,36.277606964099995,-20.170000076300003,-20.6317996979,28.0,-27.971660614,False,0.5146366522147634,1.1349029669457011,-0.039361028151675956,-0.3434835989168514,-0.7370988459050216,-0.58032278569901,0.09246573678039365,-0.06097495461348765,-0.21958519254722203,-2.7557505085141907,0.13744044532554248,10.925246596410684,0.0,20.773979970351252,0.0399999991059,434.9744785414725,-5.103882557160751
2018-09-11 16:03:19.363216877,42.25,36.277606964099995,-20.2199993134,-20.6317996979,29.0,-27.971660614,False,0.5147515897352714,1.1384599661916361,-0.040676263756273284,-0.3451675658616127,-0.7326532950471352,-0.5847053446506778,0.11546079573123738,-0.05759618243513072,-0.22691293595669113,-2.735056676126878,0.25513661702838053,10.91877977378965,0.0,20.764409617734724,0.0399999991059,434.7871979726361,-5.163625882740835
2018-09-11 16:03:19.426088810,42.1899986267,35.7420692444,-20.2399997711,-19.6274833679,29.0,-21.028608322100002,False,0.5146288539767985,1.1416820961497998,-0.04199149936087061,-0.34685153280637393,-0.7282077441892487,-0.5890879036023455,0.1384558546820811,-0.0542174102567738,-0.23424067936616025,-2.714362843739566,0.3728327887312186,10.912312951168614,0.0,20.754839265118196,0.0399999991059,434.5999174037997,-5.223369208320918
2018-09-11 16:03:19.493929148,42.1399993896,35.7420692444,-20.3199996948,-19.6274833679,29.0,-21.028608322100002,False,0.5145061182183256,1.1449042261079634,-0.04330673496546794,-0.34853549975113524,-0.7237621933313623,-0.5934704625540134,0.16145091363292485,-0.05083863807841687,-0.24156842277562937,-2.6936690113522537,0.4905289604340566,10.905846128547578,0.0,20.74526891250167,0.0399999991059,434.4126368349633,-5.283112533901002
2018-09-11 16:03:19.519108772,42.090000152600005,35.7420692444,-20.3199996948,-19.6274833679,30.0,-21.028608322100002,False,0.5143833824598527,1.148126356066127,-0.04462197057006527,-0.3502194666958965,-0.7193166424734758,-0.5978530215056811,0.18444597258376857,-0.04745986590005994,-0.2488961661850985,-2.6729751789649416,0.6082251321368947,10.899379305926544,0.0,20.735698559885144,0.0399999991059,434.2253562661269,-5.342855859481085
2018-09-11 16:03:19.615125418,41.9500007629,35.7420692444,-20.1299991608,-19.6274833679,31.0,-21.028608322100002,False,0.5142606467013798,1.1513484860242906,-0.0459372061746626,-0.35190343364065774,-0.7148710916155894,-0.6022355804573489,0.20744103153461232,-0.04408109372170301,-0.2562239095945676,-2.652281346577629,0.7259213038397327,10.892912483305508,0.0,20.726128207268616,0.0399999991059,434.0380756972905,-5.4025991850611685
2018-09-11 16:03:19.643324137,40.590000152600005,35.7420692444,-20.079999923699997,-19.6274833679,31.0,-21.028608322100002,False,0.514137910942907,1.1545706159824543,-0.04725244177925993,-0.35358740058541904,-0.7104255407577029,-0.6066181394090167,0.23043609048545607,-0.04070232154334608,-0.2635516530040367,-2.631587514190317,0.8436174755425707,10.886445660684474,0.0,20.716557854652088,0.0399999991059,433.8507951284541,-5.462342510641252
2018-09-11 16:03:19.693290949,40.2000007629,35.7420692444,-19.9499988556,-19.6274833679,31.0,-21.028608322100002,False,0.5140151751844341,1.1577927459406179,-0.05237960995583455,-0.35608771928573957,-0.7028779204736562,-0.6128350307077128,0.2409174550751853,-0.053846452739739384,-0.2609319587386444,-2.647631782971619,0.7560124936560935,11.061508279131886,0.0,20.685792585490653,0.04220367184462788,433.542315246192,-5.526867312464808
2018-09-11 16:03:19.732233524,41.7799987793,36.9259910583,-19.859998703,-21.251037597699998,31.0,-16.0560913086,False,0.5138924394259612,1.1610148758987815,-0.05825761333598046,-0.35874883454397327,-0.6947192865147597,-0.6194132298929449,0.24893400107863436,-0.07024509520691684,-0.25635292068880966,-2.6709123444073453,0.6279694057595994,11.272326696577629,0.0,20.650852560040068,0.04484140133492337,433.20996277189147,-5.5923339202151086
2018-09-11 16:03:19.758240938,41.7399978638,36.9259910583,-19.75,-21.251037597699998,31.0,-16.0560913086,False,0.5137697036674883,1.1642370058569451,-0.06413561671612637,-0.361409949802207,-0.6865606525558632,-0.625991429078177,0.2569505470820835,-0.0866437376740943,-0.251773882638975,-2.694192905843072,0.49992631786310526,11.483145114023372,0.0,20.615912534589484,0.04747913082521886,432.877610297591,-5.657800527965409
2018-09-11 16:03:19.831548214,41.7099990845,36.9259910583,-19.5599994659,-21.251037597699998,32.0,-16.0560913086,False,0.5149133643153072,1.166950487951628,-0.07001362009627228,-0.36407106506044074,-0.6784020185969667,-0.632569628263409,0.2649670930855325,-0.10304238014127176,-0.24719484458914023,-2.717473467278798,0.37188322996661116,11.693963531469114,0.0,20.5809725091389,0.05011686031551435,432.5452578232905,-5.72326713571571
2018-09-11 16:03:19.876567841,41.7000007629,36.9259910583,-19.4300003052,-21.251037597699998,32.0,-16.0560913086,False,0.516415322482955,1.1695200599190818,-0.0758916234764182,-0.36673218031867444,-0.6702433846380702,-0.6391478274486411,0.2729836390889816,-0.11944102260844922,-0.2426158065393055,-2.740754028714524,0.24384014207011706,11.904781948914858,0.0,20.546032483688315,0.05275458980580985,432.21290534899,-5.78873374346601
2018-09-11 16:03:19.910570383,41.7000007629,36.9259910583,-19.3500003815,-21.251037597699998,32.0,-16.0560913086,False,0.5179172806506027,1.172089631886536,-0.08176962685656411,-0.36939329557690814,-0.6620847506791737,-0.6457260266338731,0.2810001850924307,-0.13583966507562667,-0.2380367684894708,-2.76403459015025,0.11579705417362285,12.1156003663606,0.0,20.51109245823773,0.05539231929610534,431.8805528746895,-5.854200351216311
2018-09-11 16:03:19.992259026,41.6800003052,36.9259910583,-19.2999992371,-21.251037597699998,33.0,-16.0560913086,False,0.5194192388182505,1.17465920385399,-0.08764763023671002,-0.37205441083514185,-0.6539261167202772,-0.6523042258191052,0.2890167310958798,-0.15223830754280412,-0.23345773043963608,-2.7873151515859766,-0.012246033722871252,12.326418783806343,0.0,20.476152432787146,0.058030048786400834,431.548200400389,-5.91966695896661
2018-09-11 16:03:20.064040184,41.6499977112,36.9259910583,-19.1800003052,-21.251037597699998,33.0,-16.0560913086,False,0.5209211969858982,1.1772287758214441,-0.09314118725328666,-0.3735774565982838,-0.6464859538347363,-0.6585406331436027,0.28470237786346586,-0.16736482767937394,-0.22731926820836565,-2.797170916694491,-0.05515626686143618,12.370900700417362,0.0,20.451490055142905,0.0599999986589,431.19781759069616,-5.948005783733272
2018-09-11 16:03:20.144481421,41.6399993896,36.9259910583,-18.9099998474,-21.251037597699998,33.0,-16.0560913086,False,0.522423155153546,1.1797983477888982,-0.09750062749733389,-0.37174319735090483,-0.6411652806155944,-0.6637687544789332,0.24401187188525567,-0.17873858694065106,-0.2165805046418598,-2.7674235326377294,0.15307542153589268,11.924689939565944,0.0,20.45714673852738,0.0599999986589,430.794245291596,-5.8668176486981976
2018-09-11 16:03:20.231950760,41.590000152600005,40.733959198,-18.670000076300003,-21.8639202118,33.0,-7.378722667689999,False,0.5239251133211937,1.1823679197563524,-0.10186006774138114,-0.3699089381035259,-0.6358446073964524,-0.6689968758142638,0.2033213659070455,-0.19011234620192818,-0.20584174107535394,-2.7376761485809684,0.36130710993322157,11.478479178714524,0.0,20.462803421911854,0.0599999986589,430.39067299249587,-5.785629513663122
2018-09-11 16:03:20.290171623,41.5699996948,40.733959198,-18.5,-21.8639202118,33.0,-7.378722667689999,False,0.5254270714888415,1.1849374917238065,-0.10621950798542838,-0.3680746788561469,-0.6305239341773106,-0.6742249971495944,0.1626308599288353,-0.2014861054632053,-0.19510297750884809,-2.707928764524207,0.5695387983305505,11.032268417863106,0.0,20.468460105296327,0.0599999986589,429.9871006933957,-5.704441378628047
2018-09-11 16:03:20.349618912,41.5799980164,40.733959198,-18.2799987793,-21.8639202118,33.0,-7.378722667689999,False,0.5269290296564892,1.1875070636912606,-0.11057894822947562,-0.36624041960876796,-0.6252032609581687,-0.6794531184849248,0.12194035395062514,-0.21285986472448243,-0.18436421394234226,-2.678181380467446,0.7777704867278794,10.586057657011686,0.0,20.474116788680803,0.0599999986589,429.5835283942955,-5.623253243592972
2018-09-11 16:03:20.391166449,41.6299972534,40.733959198,-18.2099990845,-21.8639202118,33.0,-7.378722667689999,False,0.5276374471022137,1.18963413343601,-0.11493838847352286,-0.364406160361389,-0.6198825877390268,-0.6846812398202554,0.08124984797241494,-0.22423362398575958,-0.1736254503758364,-2.6484339964106844,0.9860021751252083,10.139846896160268,0.0,20.479773472065276,0.0599999986589,429.17995609519534,-5.542065108557897
2018-09-11 16:03:20.446594000,41.7399978638,40.733959198,-18.3199996948,-21.8639202118,33.0,-7.378722667689999,False,0.5279536029410785,1.191542466286582,-0.11929782871757011,-0.36257190111401005,-0.6145619145198848,-0.689909361155586,0.040559341994204745,-0.2356073832470367,-0.16288668680933055,-2.6186866123539234,1.1942338635225371,9.693636135308848,0.0,20.48543015544975,0.0599999986589,428.77638379609516,-5.460876973522822
2018-09-11 16:03:20.483422041,41.8099975586,40.733959198,-18.3899993896,-21.8639202118,33.0,-7.378722667689999,False,0.5282697587799433,1.1934507991371537,-0.12365726896161736,-0.3607376418666311,-0.609241241300743,-0.6951374824909166,-0.0001311639840054224,-0.24698114250831382,-0.15214792324282472,-2.588939228297162,1.4024655519198659,9.247425374457428,0.0,20.491086838834224,0.0599999986589,428.372811496995,-5.379688838487747
2018-09-11 16:03:20.539361238,41.8999977112,40.733959198,-18.5499992371,-21.8639202118,33.0,-7.378722667689999,False,0.5285859146188081,1.1953591319877255,-0.125461261372212,-0.35808957897602844,-0.6041764683583524,-0.7005051855462704,-0.0069595268882501025,-0.23524767420351822,-0.16143595530473953,-2.586958252253756,1.328694658931553,9.455460602420699,0.0,20.529055364533725,0.05911519083013306,428.03383115500833,-5.486756355018815
2018-09-11 16:03:20.630717278,40.9899978638,40.733959198,-18.7999992371,-21.8639202118,33.0,-7.378722667689999,False,0.5289020704576728,1.197267464838297,-0.12601163786450917,-0.3550422916566745,-0.599237231400783,-0.7059413626529566,0.002823727564545053,-0.21217858482857366,-0.18054845314663434,-2.5985985329716192,1.116582876961603,9.984446692821367,0.0,20.58287498268965,0.05779632633065025,427.72653743349247,-5.686175700620066
2018-09-11 16:03:20.676693439,41.0400009155,40.7832183838,-18.8899993896,-20.4836578369,33.0,0.154041290283,False,0.5292182262965376,1.1991757976888688,-0.12656201435680633,-0.35199500433732056,-0.5942979944432137,-0.7113775397596427,0.01260698201734021,-0.1891094954536291,-0.19966095098852915,-2.6102388136894823,0.9044710949916533,10.513432783222035,0.0,20.636694600845576,0.05647746183116745,427.4192437119766,-5.885595046221319
2018-09-11 16:03:20.751995802,39.5400009155,40.7832183838,-19.2299995422,-20.4836578369,33.0,0.154041290283,False,0.5295343821354024,1.2010841305394406,-0.1271123908491035,-0.3489477170179666,-0.5893587574856445,-0.7168137168663289,0.02239023647013537,-0.16604040607868453,-0.218773448830424,-2.6218790944073453,0.6923593130217035,11.042418873622703,0.0,20.690514219001503,0.05515859733168465,427.11194999046074,-6.085014391822571
2018-09-11 16:03:20.771630526,39.5599975586,40.7832183838,-19.3099994659,-20.4836578369,33.0,0.154041290283,False,0.5298505379742672,1.2029924633900124,-0.12766276734140064,-0.34590042969861273,-0.5844195205280751,-0.722249893973015,0.03217349092293052,-0.14297131670373997,-0.2378859466723188,-2.633519375125209,0.4802475310517538,11.57140496402337,0.0,20.74433383715743,0.05383973283220184,426.8046562689449,-6.284433737423823
2018-09-11 16:03:20.832678318,37.3499984741,40.7832183838,-19.5299987793,-20.4836578369,33.0,0.154041290283,False,0.530166693813132,1.2049007962405842,-0.1282131438336978,-0.3428531423792588,-0.5794802835705058,-0.7276860710797012,0.041956745375725676,-0.11990222732879541,-0.2569984445142136,-2.645159655843072,0.26813574908180393,12.100391054424037,0.0,20.798153455313358,0.05252086833271904,426.497362547429,-6.483853083025075
2018-09-11 16:03:20.877016306,37.3499984741,40.7832183838,-19.6199989319,-20.4836578369,33.0,0.154041290283,False,0.5293470079833827,1.207197331531849,-0.12876352032599497,-0.33980585505990485,-0.5745410466129366,-0.7331222481863873,0.05173999982852084,-0.09683313795385085,-0.27611094235610845,-2.656799936560935,0.05602396711185409,12.629377144824705,0.0,20.85197307346928,0.05120200383323623,426.19006882591316,-6.683272428626328
2018-09-11 16:03:20.893378973,37.3499984741,40.7832183838,-19.6499996185,-20.4836578369,32.0,0.154041290283,False,0.5276310117212579,1.20980020344298,-0.12911226007150584,-0.33677823795067946,-0.5697444100359582,-0.7384284978987011,0.05747378156060485,-0.07599012909425241,-0.29217855689564615,-2.6674088,-0.12308246193656172,13.09991625609349,0.0,20.904349532424042,0.04988313929021787,425.88896838959596,-6.8564430373762955
2018-09-11 16:03:21.013058901,31.969999313400002,40.7832183838,-19.6299991608,-20.4836578369,32.0,0.154041290283,False,0.5259150154591331,1.212403075354111,-0.12738702185007178,-0.3339529430027763,-0.5664145202307729,-0.7423983515546143,0.021555843879657595,-0.07804394839250116,-0.2769273717537947,-2.6674088,0.03729473906510772,12.969286439148581,0.0,20.941882068166777,0.04856427429940518,425.65157031532215,-6.75962663851304
2018-09-11 16:03:21.075453043,31.8899993896,37.8731460571,-19.6999988556,-20.4954776764,31.0,7.541315078739999,False,0.5241990191970083,1.2150059472652421,-0.12566178362863772,-0.3311276480548731,-0.5630846304255877,-0.7463682052105275,-0.014362093801289666,-0.0800977676907499,-0.2616761866119433,-2.6674088,0.19767194006677719,12.838656622203674,0.0,20.979414603909515,0.047245409308592494,425.4141722410484,-6.662810239649784
2018-09-11 16:03:21.118999004,28.760000228899997,37.8731460571,-19.7999992371,-20.4954776764,31.0,7.541315078739999,False,0.5224830229348836,1.2176088191763732,-0.12393654540720367,-0.3283023531069699,-0.5597547406204023,-0.7503380588664407,-0.05028003148223692,-0.08215158698899865,-0.2464250014700919,-2.6674088,0.3580491410684466,12.708026805258765,0.0,21.016947139652252,0.0459265443177798,425.1767741667746,-6.565993840786528
2018-09-11 16:03:21.160444975,28.75,37.8731460571,-19.859998703,-20.4954776764,31.0,7.541315078739999,False,0.5207670266727588,1.2202116910875043,-0.12221130718576961,-0.32547705815906675,-0.556424850815217,-0.7543079125223539,-0.08619796916318416,-0.0842054062872474,-0.2311738163282405,-2.6674088,0.5184263420701161,12.577396988313858,0.0,21.05447967539499,0.04460767932696712,424.9393760925008,-6.469177441923272
2018-09-11 16:03:21.240583181,25.670000076300003,37.8731460571,-20.109998703,-20.4954776764,30.0,7.541315078739999,False,0.5190510304106339,1.2228145629986353,-0.12048606896433557,-0.32265176321116357,-0.5530949610100317,-0.758277766178267,-0.12211590684413141,-0.08625922558549615,-0.21592263118638905,-2.6674088,0.6788035430717856,12.446767171368949,0.0,21.092012211137728,0.043288814336154426,424.701978018227,-6.372361043060017
2018-09-11 16:03:21.258236407,25.670000076300003,37.8731460571,-20.1800003052,-20.4954776764,30.0,7.541315078739999,False,0.5173350341485091,1.2254174349097664,-0.11876083074290152,-0.3198264682632604,-0.5497650712048464,-0.7622476198341802,-0.15803384452507868,-0.08831304488374489,-0.20067144604453765,-2.6674088,0.8391807440734549,12.31613735442404,0.0,21.129544746880466,0.04196994934534174,424.4645799439532,-6.275544644196761
2018-09-11 16:03:21.303922653,22.279998779299998,37.8731460571,-20.4099998474,-20.4954776764,30.0,7.541315078739999,False,0.5156190378863843,1.2280203068208975,-0.11703559252146746,-0.31700117331535727,-0.5464351813996611,-0.7662174734900934,-0.19395178220602594,-0.09036686418199363,-0.18542026090268623,-2.6674088,0.9995579450751244,12.185507537479133,0.0,21.167077282623204,0.04065108435452905,424.22718186967944,-6.178728245333505
2018-09-11 16:03:21.341752529,22.279998779299998,37.8731460571,-20.5699996948,-20.4954776764,30.0,7.541315078739999,False,0.5146515887133906,1.2307135838380885,-0.11375202853851756,-0.31270535102007513,-0.5435797751849933,-0.7703943151120833,-0.21804621915184136,-0.08820165178809551,-0.1824093602332888,-2.668718536227045,1.0545013797996663,12.105957433388982,0.0,21.20846107049282,0.03933221948810368,423.96574470672454,-6.12740080583252
2018-09-11 16:03:21.404049158,19.2099990845,34.023021698,-20.8099994659,-20.9953022003,29.0,12.8220396042,False,0.5146039643533121,1.2335179518754382,-0.10894909693808968,-0.3069757645610985,-0.5411869904710801,-0.7747729700009982,-0.23061274288090314,-0.08192288349435412,-0.1913327369245342,-2.671305265275459,1.0066468924040068,12.07621004933222,0.0,21.253599829186143,0.03801335474295593,423.6808694323055,-6.120425101709749
2018-09-11 16:03:21.465055227,19.2199993134,34.023021698,-20.9599990845,-20.9953022003,29.0,12.8220396042,False,0.5145563399932337,1.236322319912788,-0.1041461653376618,-0.30124617810212184,-0.538794205757167,-0.7791516248899131,-0.24317926660996492,-0.0756441152006127,-0.2002561136157796,-2.6738919943238733,0.9587924050083474,12.04646266527546,0.0,21.298738587879466,0.03669448999780819,423.3959941578865,-6.113449397586978
2018-09-11 16:03:21.498257637,15.6599998474,34.023021698,-21.2099990845,-20.9953022003,28.0,12.8220396042,False,0.5145087156331553,1.2391266879501377,-0.09934323373723392,-0.29551659164314525,-0.5364014210432537,-0.7835302797788279,-0.25574579033902667,-0.06936534690687131,-0.209179490307025,-2.6764787233722873,0.9109379176126879,12.016715281218698,0.0,21.34387734657279,0.03537562525266044,423.11111888346744,-6.106473693464206
2018-09-11 16:03:21.627591372,13.5699996948,34.023021698,-21.6999988556,-20.9953022003,29.0,12.8220396042,False,0.5144610912730767,1.2419310559874874,-0.09454030213680603,-0.2897870051841686,-0.5340086363293406,-0.7879089346677428,-0.2683123140680884,-0.0630865786131299,-0.21810286699827042,-2.6790654524207014,0.8630834302170286,11.986967897161938,0.0,21.389016105266112,0.0340567605075127,422.8262436090484,-6.099497989341435
2018-09-11 16:03:21.677994490,13.579999923699999,34.023021698,-21.8899993896,-20.9953022003,29.0,12.8220396042,False,0.5144134669129983,1.2447354240248372,-0.08973737053637816,-0.284057418725192,-0.5316158516154273,-0.7922875895566577,-0.28087883779715017,-0.0568078103193885,-0.22702624368951582,-2.6816521814691154,0.8152289428213692,11.957220513105176,0.0,21.434154863959435,0.03273789576236495,422.5413683346294,-6.0925222852186645
2018-09-11 16:03:21.712738037,9.9299993515,34.023021698,-22.090000152600002,-20.9953022003,28.0,12.8220396042,False,0.5143658425529198,1.247539792062187,-0.08493443893595028,-0.2783278322662154,-0.5292230669015141,-0.7966662444455725,-0.293445361526212,-0.0505290420256471,-0.23594962038076123,-2.6842389105175295,0.7673744554257098,11.927473129048416,0.0,21.479293622652754,0.0314190310172172,422.25649306021035,-6.085546581095893
2018-09-11 16:03:21.743760347,9.92000007629,34.023021698,-22.279998779299998,-20.9953022003,28.0,12.8220396042,False,0.5143182181928414,1.2503441600995366,-0.0801315073355224,-0.2725982458072388,-0.526830282187601,-0.8010448993344874,-0.30601188525527373,-0.044250273731905695,-0.24487299707200666,-2.686825639565943,0.7195199680300504,11.897725744991654,0.0,21.524432381346077,0.030100166272069455,421.97161778579135,-6.078570876973122
2018-09-11 16:03:21.806658745,9.89999961853,26.2885684967,-22.4499988556,-20.621486663800003,27.0,18.5105190277,False,0.5142705938327629,1.2531485281368864,-0.07205315284103443,-0.2676727313401002,-0.5241310173892888,-0.8048236331338714,-0.30706641003364105,-0.03021530404016283,-0.2347077777571069,-2.6953880401502506,0.5676887959098504,11.780733556510853,0.0,21.548405340013357,0.028781301526933898,421.7001501215726,-6.035199950254891
2018-09-11 16:03:21.842836142,6.5299997329699995,26.2885684967,-22.6999988556,-20.621486663800003,27.0,18.5105190277,False,0.514403311218063,1.2554475623781343,-0.06370558550593877,-0.2628133049818798,-0.5214065624470534,-0.8085530583505542,-0.3071747431174307,-0.015542838343104728,-0.22297363274307183,-2.7044415918196996,0.407311594908181,11.65657056218698,0.0,21.570638643883974,0.02746243678179934,421.42978445271285,-5.988837635378131
2018-09-11 16:03:21.907250166,6.5299997329699995,26.2885684967,-22.8799991608,-20.621486663800003,27.0,18.5105190277,False,0.5148886068471369,1.256758640658464,-0.05535801817084311,-0.2579538786236595,-0.518682107504818,-0.8122824835672371,-0.30728307620122036,-0.0008703726460466341,-0.21123948772903678,-2.7134951434891486,0.24693439390651156,11.532407567863107,0.0,21.592871947754592,0.026143572036664783,421.1594187838531,-5.942475320501369
2018-09-11 16:03:21.945703030,5.579999923709999,26.2885684967,-23.170000076300003,-20.621486663800003,27.0,18.5105190277,False,0.5153739024762107,1.2580697189387937,-0.047010450835747446,-0.2530944522654391,-0.5159576525625826,-0.8160119087839199,-0.30739140928501,0.013802093051011467,-0.19950534271500173,-2.7225486951585975,0.0865571929048421,11.408244573539232,0.0,21.61510525162521,0.024824707291530225,420.8890531149933,-5.896113005624608
2018-09-11 16:03:22.021017551,2.58999991417,26.2885684967,-23.479999542199998,-20.621486663800003,27.0,18.5105190277,False,0.5158591981052846,1.2593807972191235,-0.038662883500651786,-0.24823502590721874,-0.5132331976203472,-0.8197413340006027,-0.3074997423687997,0.02847455874806956,-0.18777119770096665,-2.731602246828047,-0.07382000809682732,11.284081579215359,0.0,21.63733855549583,0.023505842546395667,420.61868744613355,-5.849750690747847
2018-09-11 16:03:22.052871227,2.58999991417,26.2885684967,-23.559999465900002,-20.621486663800003,27.0,18.5105190277,False,0.5163444937343585,1.2606918754994532,-0.030315316165556126,-0.24337559954899837,-0.5105087426781119,-0.8234707592172855,-0.3076080754525893,0.04314702444512766,-0.1760370526869316,-2.740655798497496,-0.23419720909849673,11.159918584891486,0.0,21.659571859366448,0.02218697780126111,420.3483217772738,-5.803388375871085
2018-09-11 16:03:22.152331352,5.5299997329699995,26.2885684967,-23.8799991608,-20.621486663800003,29.0,18.5105190277,False,0.5168297893634324,1.262002953779783,-0.02196774883046046,-0.238516173190778,-0.5077842877358765,-0.8272001844339684,-0.30771640853637894,0.057819490142185764,-0.16430290767289651,-2.749709350166945,-0.39457441010016625,11.035755590567613,0.0,21.681805163237065,0.02086811305612655,420.077956108414,-5.757026060994324
2018-09-11 16:03:22.212702990,3.41999983788,16.6317100525,-24.039999008200002,-21.9498100281,28.0,23.996252059899998,False,0.5173150849925062,1.2633140320601126,-0.014705085495340086,-0.23411747529381138,-0.5057341363450033,-0.8301222749162104,-0.30089056748112525,0.0611358148999004,-0.15047758945498488,-2.753900506093489,-0.43029746569282207,10.808156177712856,0.0,21.698263680955094,0.019999999553,419.8143514332421,-5.686147857788481
2018-09-11 16:03:22.238718033,3.40999984741,16.6317100525,-24.1499996185,-21.9498100281,28.0,23.996252059899998,False,0.5178003806215801,1.2646251103404424,-0.009531866900912874,-0.23060610628518532,-0.5049826436456427,-0.8314894985024925,-0.2807100206766027,0.042581053404064345,-0.1326248265481256,-2.748727047996661,-0.22594587086811418,10.381345884724542,0.0,21.703600388305176,0.019999999553,419.5637679310985,-5.568053869652554
2018-09-11 16:03:22.283652067,3.40999984741,16.6317100525,-24.25,-21.9498100281,28.0,23.996252059899998,False,0.518285676250654,1.265936188620772,-0.004358648306485661,-0.2270947372765593,-0.5042311509462821,-0.8328567220887747,-0.2605294738720802,0.024026291908228282,-0.11477206364126633,-2.743553589899833,-0.021594276043406357,9.954535591736228,0.0,21.70893709565526,0.019999999553,419.3131844289549,-5.449959881516628
2018-09-11 16:03:22.343130589,1.4199999570800002,16.6317100525,-24.359998703000002,-21.9498100281,28.0,23.996252059899998,False,0.518998949956364,1.2670281270980968,0.0008145702879415496,-0.22358336826793324,-0.5034796582469215,-0.8342239456750568,-0.24034892706755764,0.00547153041239222,-0.09691930073440708,-2.738380131803005,0.18275731878130153,9.527725298747914,0.0,21.714273803005344,0.019999999553,419.06260092681134,-5.3318658933807015
2018-09-11 16:03:22.366246462,1.4199999570800002,16.6317100525,-24.3899993896,-21.9498100281,28.0,23.996252059899998,False,0.5204835494880259,1.2673786425752547,0.005987788882368762,-0.22007199925930718,-0.502728165547561,-0.8355911692613389,-0.2201683802630351,-0.013083231083443836,-0.0790665378275478,-2.733206673706177,0.3871089136060094,9.100915005759601,0.0,21.719610510355427,0.019999999553,418.8120174246678,-5.213771905244775
2018-09-11 16:03:22.426718235,3.50999999046,16.6317100525,-24.459999084499998,-21.9498100281,29.0,23.996252059899998,False,0.5219681490196878,1.2677291580524124,0.011161007476795975,-0.21656063025068115,-0.5019766728482004,-0.8369583928476211,-0.19998783345851256,-0.03163799257927989,-0.06121377492068854,-2.728033215609349,0.5914605084307173,8.674104712771287,0.0,21.72494721770551,0.019999999553,418.5614339225242,-5.095677917108849
2018-09-11 16:03:22.469999075,3.50999999046,16.6317100525,-24.5,-21.9498100281,29.0,23.996252059899998,False,0.5234527485513497,1.26807967352957,0.016334226071223187,-0.2130492612420551,-0.5012251801488398,-0.8383256164339032,-0.17980728665399004,-0.05019275407511596,-0.043361012013829275,-2.722859757512521,0.7958121032554252,8.247294419782973,0.0,21.73028392505559,0.019999999553,418.31085042038063,-4.977583928972922
2018-09-11 16:03:22.515862703,2.25,16.6317100525,-24.539999008200002,-21.9498100281,29.0,23.996252059899998,False,0.5249373480830117,1.2684301890067278,0.021507444665650403,-0.20953789223342903,-0.5004736874494791,-0.8396928400201853,-0.15962673984946749,-0.068747515570952,-0.02550824910697,-2.7176862994156927,1.000163698080133,7.820484126794659,0.0,21.735620632405674,0.019999999553,418.06026691823706,-4.859489940836996
2018-09-11 16:03:22.555938959,2.25,10.5964899063,-24.5699996948,-21.9241542816,29.0,26.3882369995,False,0.5264219476146736,1.2687807044838857,0.023515925013873954,-0.20804701265889314,-0.49962956063853253,-0.8405464388746477,-0.13277313687904851,-0.06738407481991338,-0.02090427777935943,-2.7449288129382303,0.8813378788814701,7.7826654932387305,0.0,21.729054146911018,0.022003338406378956,417.8397322767279,-5.115359975814924
2018-09-11 16:03:22.602380276,9.34000015259,10.5964899063,-24.6299991608,-21.9241542816,33.0,26.3882369995,False,0.5279065471463356,1.2691312199610434,0.024522238250799664,-0.2071959547384858,-0.49875609969225043,-0.8412373898973673,-0.10380639945609563,-0.05971320335736431,-0.020495757118511017,-2.7824363841402335,0.6601725452420713,7.868027551836393,0.0,21.718718317015526,0.02464106789666126,417.6287131077529,-5.489651951445574
2018-09-11 16:03:22.674856663,9.34000015259,10.5964899063,-24.6800003052,-21.9241542816,33.0,26.3882369995,False,0.5293911466779975,1.269481735438201,0.02552855148772537,-0.20634489681807844,-0.4978826387459683,-0.8419283409200868,-0.07483966203314273,-0.05204233189481523,-0.020087236457662604,-2.8199439553422367,0.4390072116026724,7.953389610434056,0.0,21.708382487120033,0.027278797386943558,417.417693938778,-5.863943927076225
2018-09-11 16:03:22.727195024,8.67000007629,10.5964899063,-24.6800003052,-21.9241542816,33.0,26.3882369995,False,0.5308757462096595,1.269832250915359,0.02653486472465108,-0.2054938388976711,-0.4970091777996862,-0.8426192919428064,-0.045872924610189825,-0.044371460432266155,-0.01967871579681419,-2.85745152654424,0.2178418779632736,8.038751669031718,0.0,21.69804665722454,0.02991652687722586,417.206674769803,-6.238235902706876
2018-09-11 16:03:22.772573233,8.67000007629,10.5964899063,-24.6800003052,-21.9241542816,33.0,26.3882369995,False,0.5323486080923155,1.2701598043627211,0.02754117796157679,-0.20464278097726377,-0.496135716853404,-0.8433102429655259,-0.016906187187236937,-0.036700588969717084,-0.019270195135965777,-2.894959097746243,-0.003323455676125242,8.124113727629382,0.0,21.68771082732905,0.03255425636750816,416.99565560082806,-6.612527878337526
2018-09-11 16:03:22.799891949,8.67000007629,10.5964899063,-24.670000076300003,-21.9241542816,34.0,26.3882369995,False,0.5337336269243472,1.2703155129419366,0.0285474911985025,-0.20379172305685642,-0.4952622559071219,-0.8440011939882455,0.01206055023571595,-0.029029717507168006,-0.018861674475117364,-2.9324666689482464,-0.22448878931552407,8.209475786227044,0.0,21.677374997433557,0.03519198585779046,416.7846364318531,-6.986819853968177
2018-09-11 16:03:22.829528093,9.769999504089999,9.19405937195,-24.659999847399998,-21.832159042399997,34.0,27.6494655609,False,0.535118645756379,1.270471221521152,0.029553804435428207,-0.20294066513644907,-0.49438879496083976,-0.844692145010965,0.041027287658668865,-0.021358846044618934,-0.01845315381426895,-2.9699742401502496,-0.4456541229549227,8.294837844824707,0.0,21.667039167538064,0.037829715348072765,416.57361726287814,-7.361111829598827
2018-09-11 16:03:22.861179829,9.769999504089999,9.19405937195,-24.6499996185,-21.832159042399997,34.0,27.6494655609,False,0.5365036645884107,1.2706269301003672,0.030140069360929563,-0.20231786040038227,-0.4937146235492154,-0.8452231045872104,0.06512624004196359,-0.016667367965072368,-0.017672491991437684,-2.9987720654424037,-0.6264795808013355,8.381804330300499,0.0,21.65960387677746,0.0404674448383574,416.3359540574758,-7.608519494438333
2018-09-11 16:03:22.928416491,8.88999938965,9.19405937195,-24.6299991608,-21.832159042399997,34.0,27.6494655609,False,0.5378886834204424,1.2707826386795826,0.028776109983389163,-0.202754802591611,-0.4939657249770735,-0.8450112467333973,0.06662476188398679,-0.02580878773518122,-0.015164031916543044,-2.9871317847245407,-0.6200127581803004,8.476219940567612,0.0,21.665635374857427,0.0431051743286529,415.9745863972321,-7.266821430604627
2018-09-11 16:03:23.012743711,8.14999961853,9.19405937195,-24.239999771100003,-21.832159042399997,33.0,27.6494655609,False,0.5392737022524741,1.270938347258798,0.02741215060584876,-0.20319174478283972,-0.4942168264049316,-0.8447993888795844,0.06812328372601001,-0.034950207505290085,-0.012655571841648406,-2.9754915040066776,-0.6135459355592654,8.570635550834723,0.0,21.671666872937394,0.0457429038189484,415.6132187369883,-6.92512336677092
2018-09-11 16:03:23.068452835,8.14999961853,9.19405937195,-24.239999771100003,-21.832159042399997,33.0,27.6494655609,False,0.5406587210845059,1.2710940558380133,0.026048191228308357,-0.20362868697406844,-0.4944679278327897,-0.8445875310257713,0.06962180556803321,-0.044091627275398934,-0.010147111766753768,-2.9638512232888146,-0.6070791129382304,8.665051161101836,0.0,21.67769837101736,0.04838063330924389,415.2518510767446,-6.583425302937214
2018-09-11 16:03:23.152801037,15.369999885599999,9.19405937195,-23.829999923699997,-21.832159042399997,38.0,27.6494655609,False,0.5420437399165375,1.2712497644172287,0.024684231850767957,-0.20406562916529716,-0.49471902926064776,-0.8443756731719583,0.07112032741005642,-0.05323304704550779,-0.007638651691859129,-2.9522109425709515,-0.6006122903171953,8.759466771368947,0.0,21.683729869097327,0.051018362799539384,414.89048341650084,-6.241727239103508
2018-09-11 16:03:23.164619684,15.380000114400001,9.19405937195,-23.829999923699997,-21.832159042399997,38.0,27.6494655609,False,0.5434287587485692,1.2714054729964441,0.023320272473227554,-0.20450257135652586,-0.49497013068850587,-0.8441638153181453,0.07261884925207963,-0.06237446681561665,-0.005130191616964491,-2.9405706618530885,-0.5941454676961603,8.85388238163606,0.0,21.689761367177294,0.05365609228983488,414.52911575625706,-5.9000291752698
2018-09-11 16:03:23.238031387,15.0699996948,9.19405937195,-23.3500003815,-21.832159042399997,38.0,27.6494655609,False,0.5447997276323496,1.2715629291264525,0.02195631309568715,-0.20493951354775458,-0.49522123211636393,-0.8439519574643323,0.07411737109410284,-0.0715158865857255,-0.0026217315420698512,-2.9289303811352254,-0.5876786450751252,8.948297991903171,0.0,21.69579286525726,0.05629382178013038,414.1677480960133,-5.558331111436095
2018-09-11 16:03:23.286951065,15.0999994278,10.5237531662,-23.3500003815,-21.5119056702,38.0,27.1343193054,False,0.5443371782693418,1.2719484406349457,0.020592353718146748,-0.2053764557389833,-0.49547233354422204,-0.8437400996105192,0.07561589293612604,-0.08065730635583436,-0.0001132714671752133,-2.9172901004173624,-0.5812118224540901,9.042713602170283,0.0,21.701824363337227,0.058931551270425875,413.8063804357696,-5.216633047602388
2018-09-11 16:03:23.320687532,16.6199989319,10.5237531662,-22.959999084499998,-21.5119056702,39.0,27.1343193054,False,0.5438746289063339,1.2723339521434391,0.019659757836243907,-0.20504132357982305,-0.49519133620324873,-0.8440077755474241,0.07095067665592217,-0.07541611184601021,-0.006548978702377668,-2.910266639899833,-0.542427258430718,9.204842575375626,0.0,21.713871530745905,0.06235392225008163,413.51405917812184,-5.112875912144057
2018-09-11 16:03:23.362267733,16.6299991608,10.5237531662,-22.959999084499998,-21.5119056702,39.0,27.1343193054,False,0.5434120795433259,1.2727194636519323,0.01902085624924324,-0.20418052377784476,-0.4945480588494541,-0.8446019425758815,0.06208887271803172,-0.06038249910304012,-0.019074331765731388,-2.906386546327212,-0.4816391257929885,9.413074263772954,0.0,21.73001447301669,0.06631051722249331,413.2687482371352,-5.171121110898748
2018-09-11 16:03:23.429377079,16.3500003815,10.5237531662,-22.6000003815,-21.5119056702,39.0,27.1343193054,False,0.542949530180318,1.2731049751604255,0.018381954662242572,-0.20331972397586645,-0.4939047814956594,-0.8451961096043389,0.05322706878014128,-0.04534888636007001,-0.03159968482908511,-2.902506452754591,-0.420850993155259,9.621305952170284,0.0,21.746157415287477,0.07026711219490499,413.02343729614853,-5.2293663096534395
2018-09-11 16:03:23.474855185,16.3500003815,10.5237531662,-22.6000003815,-21.5119056702,39.0,27.1343193054,False,0.5424869808173101,1.273490486668919,0.017743053075241908,-0.20245892417388817,-0.4932615041418648,-0.8457902766327964,0.04436526484225084,-0.03031527361709991,-0.04412503789243883,-2.89862635918197,-0.3600628605175295,9.829537640567612,0.0,21.76230035755826,0.07422370716731667,412.77812635516193,-5.28761150840813
2018-09-11 16:03:23.520299195,16.079999923699997,10.5237531662,-22.289999008200002,-21.5119056702,39.0,27.1343193054,False,0.5420244314543021,1.2738759981774121,0.01710415148824124,-0.20159812437190985,-0.49261822678807016,-0.8463844436612538,0.03550346090436039,-0.015281660874129813,-0.05665039095579255,-2.894746265609349,-0.29927472787980003,10.03776932896494,0.0,21.778443299829046,0.07818030213972835,412.5328154141753,-5.345856707162821
2018-09-11 16:03:23.586134195,16.0699996948,10.4383888245,-22.289999008200002,-20.6418571472,39.0,27.9915466309,False,0.5415618820912942,1.2742615096859056,0.016465249901240573,-0.20073732456993157,-0.4919749494342755,-0.8469786106897111,0.026641656966469952,-0.0002480481311597088,-0.06917574401914627,-2.890866172036728,-0.2384865952420705,10.24600101736227,0.0,21.79458624209983,0.08213689711214003,412.2875044731886,-5.404101905917512
2018-09-11 16:03:23.630465269,23.420000076300003,10.4383888245,-21.969999313400002,-20.6418571472,44.0,27.9915466309,False,0.5410993327282863,1.2746470211943988,0.015826348314239905,-0.19987652476795326,-0.49133167208048084,-0.8475727777181686,0.017779853028579505,0.014785564611810395,-0.0817010970825,-2.8869860784641066,-0.17769846260434102,10.454232705759598,0.0,21.810729184370615,0.0860934920845517,412.042193532202,-5.462347104672204
2018-09-11 16:03:23.676337004,23.4300003052,10.4383888245,-21.969999313400002,-20.6418571472,44.0,27.9915466309,False,0.5406367833652783,1.2750325327028922,0.015140186798829254,-0.19904670340625208,-0.4906428259209016,-0.8481843155974123,0.009621849575874112,0.029531736483449148,-0.09414158438102865,-2.88331881702838,-0.11564970884808154,10.660761737061769,0.0,21.82683819557796,0.09005008703830614,411.7949794457546,-5.5230474241185625
2018-09-11 16:03:23.740710735,23.5499992371,10.4383888245,-21.6800003052,-20.6418571472,45.0,27.9915466309,False,0.539967343180853,1.2754925104605508,0.010767750867437264,-0.20063320038616694,-0.48639961291012024,-0.8501507798379883,0.056360283967641575,0.0218575203912266,-0.0999625420231971,-2.8962524622704504,0.044727492153588067,10.73448351494157,0.0,21.84030058383706,0.09400668053679412,411.3993200133673,-5.775247157515141
2018-09-11 16:03:23.787528515,23.539999008200002,10.4383888245,-21.6800003052,-20.6418571472,45.0,27.9915466309,False,0.539274233283808,1.2759610076619698,0.0063953149360452734,-0.2022196973660818,-0.48215639989933895,-0.8521172440785643,0.10309871835940904,0.014183304299004057,-0.10578349966536556,-2.9091861075125207,0.20510469315525764,10.808205292821368,0.0,21.85376297209616,0.0979632740352821,411.00366058098,-6.027446890911718
2018-09-11 16:03:23.827928782,28.469999313400002,10.4383888245,-21.3199996948,-20.6418571472,48.0,27.9915466309,False,0.5385811233867629,1.2764295048633887,0.002022879004653283,-0.20380619434599667,-0.4779131868885576,-0.8540837083191402,0.1498371527511765,0.006509088206781512,-0.11160445730753402,-2.9221197527545906,0.3654818941569273,10.881927070701169,0.0,21.867225360355256,0.10191986753377008,410.6080011485927,-6.279646624308296
2018-09-11 16:03:23.862087250,28.479999542199998,10.4383888245,-21.3199996948,-20.6418571472,48.0,27.9915466309,False,0.5378880134897178,1.2768980020648077,-0.0023495569267387075,-0.20539269132591154,-0.4736699738777763,-0.8560501725597162,0.19657558714294396,-0.001165127885441035,-0.11742541494970248,-2.935053397996661,0.5258590951585969,10.955648848580967,0.0,21.880687748614356,0.10587646103225806,410.21234171620534,-6.5318463577048735
2018-09-11 16:03:23.936911583,28.8699989319,10.4383888245,-20.8999996185,-20.6418571472,49.0,27.9915466309,False,0.5371949035926727,1.2773664992662268,-0.0067219928581307,-0.20697918830582637,-0.46942676086699503,-0.8580166368002922,0.24331402153471143,-0.008839343977663582,-0.12324637259187093,-2.947987043238731,0.6862362961602665,11.029370626460768,0.0,21.894150136873453,0.10983305453074606,409.81668228381807,-6.784046091101452
2018-09-11 16:03:23.983628511,28.8899993896,10.4383888245,-20.8899993896,-20.6418571472,49.0,27.9915466309,False,0.5365017936956278,1.2778349964676459,-0.011094428789522688,-0.20856568528574124,-0.4651835478562137,-0.8599831010408681,0.2900524559264789,-0.016513560069886128,-0.12906733023403938,-2.9609206884808015,0.8466134971619361,11.103092404340567,0.0,21.907612525132553,0.11378964802923404,409.42102285143073,-7.036245824498029
2018-09-11 16:03:24.033480167,29.0,10.4383888245,-20.579999923699997,-20.6418571472,49.0,27.9915466309,False,0.5358086837985827,1.278303493669065,-0.01546686472091468,-0.2101521822656561,-0.4609403348454324,-0.8619495652814441,0.3367908903182463,-0.024187776162108675,-0.13488828787620785,-2.9738543337228713,1.0069906981636056,11.176814182220367,0.0,21.921074913391653,0.11774624152772202,409.0253634190434,-7.288445557894607
2018-09-11 16:03:24.068227530,29.0,13.8571214676,-20.579999923699997,-20.3555030823,49.0,31.539699554400002,False,0.5351155739015376,1.278771990870484,-0.021983684459052237,-0.21330032403616864,-0.4565805930822504,-0.8632135901510484,0.37630725424401495,-0.029078837518305173,-0.131727841068589,-2.9673056525876462,1.0398978208681138,11.101913641736227,0.0,21.92453645821736,0.12170283587196994,408.6529763147162,-7.314244384160268
2018-09-11 16:03:24.125601529,31.8999996185,13.8571214676,-20.2899990082,-20.3555030823,52.0,31.539699554400002,False,0.5344224640044926,1.279240488071903,-0.031338659235529524,-0.21851534861776628,-0.4520666220879499,-0.8635479158531904,0.4062649954941969,-0.03028631172387896,-0.11668024131272225,-2.9349715394824707,0.9040945458263776,10.830307091652756,0.0,21.914761592616525,0.125659431335606,408.31139082105676,-7.040394950987947
2018-09-11 16:03:24.173433542,31.8699989319,13.8571214676,-20.2700004578,-20.3555030823,52.0,31.539699554400002,False,0.5341535462875718,1.2787701338964022,-0.040693634012006805,-0.22373037319936395,-0.4475526510936494,-0.8638822415553322,0.43622273674437884,-0.03149378592945275,-0.10163264155685547,-2.9026374263772956,0.7682912707846415,10.558700541569284,0.0,21.904986727015693,0.12961602679924206,407.96980532739735,-6.766545517815627
2018-09-11 16:03:24.273112297,31.8999996185,13.8571214676,-19.829999923699997,-20.3555030823,53.0,31.539699554400002,False,0.5339993858754191,1.2780457909426042,-0.05004860878848409,-0.2289453977809616,-0.44303868009934894,-0.8642165672574741,0.4661804779945608,-0.032701260135026534,-0.08658504180098872,-2.8703033132721205,0.6324879957429055,10.287093991485811,0.0,21.895211861414857,0.1335726222628781,407.62821983373794,-6.492696084643306
2018-09-11 16:03:24.321523190,33.3299980164,13.8571214676,-19.2799987793,-20.3555030823,55.0,31.539699554400002,False,0.5338452254632663,1.2773214479888062,-0.05940358356496138,-0.23416042236255927,-0.4385247091050484,-0.8645508929596161,0.4961382192447428,-0.03390873434060032,-0.07153744204512195,-2.837969200166945,0.4966847207011693,10.015487441402339,0.0,21.885436995814022,0.13752921772651416,407.2866343400785,-6.218846651470987
2018-09-11 16:03:24.366135359,33.2999992371,13.8571214676,-19.2600002289,-20.3555030823,55.0,31.539699554400002,False,0.5336910650511135,1.2765971050350082,-0.06875855834143867,-0.23937544694415694,-0.4340107381107479,-0.8648852186617579,0.5260959604949247,-0.03511620854617411,-0.05648984228925519,-2.80563508706177,0.36088144565943314,9.743880891318867,0.0,21.87566213021319,0.14148581319015022,406.94504884641907,-5.944997218298666
2018-09-11 16:03:24.431784868,33.1399993896,13.8571214676,-18.6599998474,-20.3555030823,55.0,31.539699554400002,False,0.5335369046389609,1.2758727620812103,-0.07811353311791595,-0.24459047152575458,-0.4294967671164474,-0.8652195443638998,0.5560537017451066,-0.036323682751747896,-0.04144224253338842,-2.7733009739565944,0.22507817061769708,9.472274341235394,0.0,21.865887264612354,0.14544240865378627,406.6034633527596,-5.671147785126346
2018-09-11 16:03:24.441760302,33.1499977112,13.8571214676,-18.6499996185,-20.3555030823,55.0,31.539699554400002,False,0.5333827442268081,1.2751484191274123,-0.08746850789439324,-0.24980549610735225,-0.4249827961221469,-0.8655538700660418,0.5860114429952885,-0.03753115695732169,-0.026394642777521654,-2.7409668608514193,0.08927489557596102,9.200667791151922,0.0,21.85611239901152,0.14939900411742232,406.2618778591002,-5.397298351954026
2018-09-11 16:03:24.517999648,38.1899986267,23.1179866791,-18.079999923699997,-21.0023269653,61.0,33.432022094699995,False,0.5332285838146553,1.2744240761736143,-0.09290554698191548,-0.25190973901037567,-0.4220798187617813,-0.8657815242929299,0.544336477136371,-0.051014218112412905,-0.03280930392730945,-2.744830582721202,0.14652674040066713,9.459962820701167,0.0,21.868526895022537,0.1555926600507178,405.9907603573623,-5.5014540213808
2018-09-11 16:03:24.545926094,38.1699981689,23.1179866791,-18.0599994659,-21.0023269653,61.0,33.432022094699995,False,0.5330744234025026,1.2736997332198163,-0.0976408662445502,-0.25345682698589317,-0.41946537757465774,-0.8659900731809667,0.48983177269074824,-0.06669589185547753,-0.043067952104975896,-2.755177498914858,0.23835562161936505,9.814344700333887,0.0,21.88491560505359,0.16218698353081798,405.73226398850585,-5.673312097243238
2018-09-11 16:03:24.619415760,38.0599975586,23.1179866791,-17.4499988556,-21.0023269653,61.0,33.432022094699995,False,0.5329202629903498,1.2729753902660181,-0.10237618550718494,-0.2550039149614107,-0.4168509363875342,-0.8661986220690033,0.43532706824512546,-0.08237756559854215,-0.05332660028264235,-2.7655244151085143,0.330184502838063,10.16872657996661,0.0,21.90130431508464,0.16878130701091815,405.47376761964944,-5.845170173105675
2018-09-11 16:03:24.641513586,38.0699996948,23.1179866791,-17.4400005341,-21.0023269653,61.0,33.432022094699995,False,0.5327032627340618,1.2725797173326292,-0.10711150476981968,-0.25655100293692823,-0.41423649520041067,-0.8664071709570401,0.38082236379950274,-0.09805923934160678,-0.0635852484603088,-2.7758713313021706,0.4220133840567609,10.52310845959933,0.0,21.917693025115693,0.17537563049101834,405.215271250793,-6.0170282489681135
2018-09-11 16:03:24.728991747,37.8099975586,23.1179866791,-16.9899997711,-21.0023269653,62.0,33.432022094699995,False,0.5324562546870351,1.2723409935662895,-0.1118468240324544,-0.2580980909124458,-0.4116220540132871,-0.8666157198450768,0.32631765935387996,-0.1137409130846714,-0.07384389663797525,-2.7862182474958264,0.5138422652754588,10.877490339232052,0.0,21.934081735146744,0.1819699539711185,404.95677488193655,-6.188886324830551
2018-09-11 16:03:24.754717350,37.840000152600005,23.1179866791,-16.9899997711,-21.0023269653,62.0,33.432022094699995,False,0.5322092466400083,1.2721022697999498,-0.11658214329508913,-0.2596451788879633,-0.4090076128261636,-0.8668242687331135,0.2718129549082572,-0.12942258682773602,-0.0841025448156417,-2.7965651636894826,0.6056711464941568,11.231872218864773,0.0,21.950470445177796,0.18856427745121868,404.69827851308014,-6.3607444006929885
2018-09-11 16:03:24.837189674,40.909999847399995,27.2795219421,-16.5900001526,-20.7335586548,67.0,34.9058303833,False,0.5319622385929816,1.27186354603361,-0.12131746255772385,-0.26119226686348085,-0.40639317163904004,-0.8670328176211503,0.21730825046263447,-0.14510426057080064,-0.09436119299330814,-2.806912079883139,0.6975000277128547,11.586254098497495,0.0,21.966859155208848,0.19515860093131887,404.4397821442237,-6.532602476555426
2018-09-11 16:03:24.869811058,40.9500007629,27.2795219421,-16.5900001526,-20.7335586548,67.0,34.9058303833,False,0.5317152305459549,1.2716248222672704,-0.12608527771486477,-0.2619431066364558,-0.4031632063846861,-0.867665925624788,0.17807863538266278,-0.1581459354625743,-0.10369779719368447,-2.816571384557596,0.7594178078464107,11.84093230784641,0.0,21.992247583092656,0.20105175594332556,404.1651581268982,-6.659217424502821
2018-09-11 16:03:24.888936043,40.969997406,27.2795219421,-16.579999923699997,-20.7335586548,68.0,34.9058303833,False,0.5314682224989282,1.2713860985009307,-0.13094284343778462,-0.2604947847071703,-0.39823322227798164,-0.8694716254715141,0.18103736236020368,-0.16389618495554423,-0.11048780374249748,-2.8243315717028383,0.7387239754590985,11.8202384754591,0.0,22.042492374569782,0.20500835042440735,403.84599108046746,-6.660875162018197
2018-09-11 16:03:24.957238197,40.7000007629,27.2795219421,-16.2600002289,-20.7335586548,68.0,34.9058303833,False,0.5312212144519015,1.271147374734591,-0.1358004091607045,-0.25904646277788484,-0.3933032381712771,-0.8712773253182404,0.18399608933774456,-0.16964643444851418,-0.1172778102913105,-2.83209175884808,0.7180301430717864,11.799544643071787,0.0,22.092737166046913,0.20896494490548914,403.52682403403674,-6.662532899533573
2018-09-11 16:03:25.001366615,42.1800003052,27.2795219421,-15.960000038099999,-20.7335586548,71.0,34.9058303833,False,0.5309742064048748,1.2709086509682512,-0.14065797488362436,-0.25759814084859933,-0.3883732540645726,-0.8730830251649666,0.18695481631528546,-0.17539668394148414,-0.12406781684012351,-2.8398519459933222,0.6973363106844742,11.778850810684474,0.0,22.14298195752404,0.21292153938657093,403.207656987606,-6.664190637048948
2018-09-11 16:03:25.042345762,42.2299995422,27.2795219421,-15.960000038099999,-20.7335586548,71.0,34.9058303833,False,0.5307271983578482,1.2706699272019115,-0.14551554060654423,-0.2561498189193139,-0.3834432699578681,-0.8748887250116928,0.18991354329282636,-0.18114693343445407,-0.13085782338893653,-2.8476121331385644,0.6766424782971621,11.758156978297162,0.0,22.19322674900117,0.21687813386765273,402.8884899411753,-6.665848374564324
2018-09-11 16:03:25.097950459,42.3099975586,27.2795219421,-15.6899995804,-20.7335586548,72.0,34.9058303833,False,0.5297888050772113,1.2706675482952379,-0.15037310632946407,-0.25470149699002836,-0.3785132858511636,-0.876694424858419,0.19287227027036727,-0.18689718292742402,-0.13764782993774954,-2.855372320283806,0.6559486459098499,11.737463145909851,0.0,22.243471540478296,0.22083472834873452,402.5693228947446,-6.6675061120797
2018-09-11 16:03:25.146366358,42.3699989319,27.2795219421,-15.6899995804,-20.7335586548,72.0,34.9058303833,False,0.5283214324903223,1.2708459969993156,-0.15523067205238394,-0.2532531750607429,-0.3735833017444591,-0.8785001247051452,0.19583099724790815,-0.19264743242039395,-0.14443783648656255,-2.8631325074290483,0.6352548135225378,11.716769313522539,0.0,22.293716331955427,0.22479132282981631,402.25015584831385,-6.669163849595075
2018-09-11 16:03:25.246050358,42.1399993896,29.7399215698,-13.899999618499999,-18.9139442444,73.0,39.6887054443,False,0.5268540599034333,1.2710244457033932,-0.16008823777530382,-0.2518048531314574,-0.3686533176377546,-0.8803058245518715,0.19878972422544905,-0.1983976819133639,-0.1512278430353756,-2.8708926945742905,0.6145609811352256,11.696075481135226,0.0,22.343961123432553,0.2287479173108981,401.93098880188313,-6.670821587110451
2018-09-11 16:03:25.345912218,42.4899978638,29.7399215698,-11.609999656700001,-18.9139442444,77.0,39.6887054443,False,0.5253866873165443,1.271202894407471,-0.16552277718391314,-0.250558322459384,-0.3627152726395443,-0.8819835656284407,0.2100081728131735,-0.20984522679931542,-0.15673448242442234,-2.860087370701169,0.6106645158597663,11.762020700166945,0.0,22.37649475950935,0.24171953763974943,401.6244441111219,-6.522571441923057
2018-09-11 16:03:25.442669392,42.5200004578,29.7399215698,-9.289999961849999,-18.9139442444,78.0,39.6887054443,False,0.5239193147296552,1.2713813431115484,-0.17122443403960097,-0.2494052136656494,-0.3563105327841553,-0.883602066533641,0.22505056659079786,-0.223930408441277,-0.16164697035061432,-2.8406869028380637,0.6145446094323873,11.86807659115192,0.0,22.400828786604507,0.258864781046272,401.3237431035409,-6.304919499188082
2018-09-11 16:03:25.528142691,42.6800003052,29.7399215698,-7.1099996566799994,-18.9139442444,81.0,39.6887054443,False,0.5224519421427664,1.271559791815626,-0.17692609089528877,-0.24825210487191485,-0.34990579292876633,-0.8852205674388414,0.24009296036842223,-0.23801559008323858,-0.1665594582768063,-2.8212864349749585,0.6184247030050084,11.974132482136895,0.0,22.425162813699664,0.2760100244527945,401.02304209595997,-6.087267556453107
2018-09-11 16:03:25.552546978,42.719997406,29.7399215698,-7.099999904630001,-18.9139442444,81.0,39.6887054443,False,0.5209845695558774,1.2717382405197037,-0.18262774775097657,-0.24709899607818028,-0.34350105307337736,-0.8868390683440417,0.2551353541460466,-0.2521007717252002,-0.17147194620299827,-2.8018859671118532,0.6223047965776294,12.080188373121869,0.0,22.449496840794822,0.293155267859317,400.722341088379,-5.869615613718133
2018-09-11 16:03:25.609816313,42.8600006104,33.1024246216,-5.0299997329699995,-17.6291904449,82.0,45.4665527344,False,0.5195171969689883,1.2719166892237814,-0.1883294046066644,-0.24594588728444575,-0.3370963132179884,-0.888457569249242,0.27017774792367094,-0.2661859533671618,-0.17638443412919028,-2.7824854992487484,0.6261848901502505,12.186244264106843,0.0,22.47383086788998,0.3103005112658395,400.421640080798,-5.651963670983158
2018-09-11 16:03:25.642021179,42.9599990845,33.1024246216,-5.019999980930001,-17.6291904449,82.0,45.4665527344,False,0.5180498243820993,1.272095137927859,-0.1940310614623522,-0.24479277849071118,-0.3306915733625994,-0.8900760701544423,0.2852201417012953,-0.2802711350091234,-0.18129692205538225,-2.763085031385643,0.6300649837228715,12.292300155091818,0.0,22.49816489498514,0.32744575467236203,400.120939073217,-5.434311728248183
2018-09-11 16:03:25.695518970,43.11999893189999,33.1024246216,-3.07999992371,-17.6291904449,83.0,45.4665527344,False,0.5167573662474474,1.2722515919466277,-0.19973271831804001,-0.24363966969697662,-0.32428683350721044,-0.8916945710596426,0.3002625354789197,-0.2943563166510849,-0.18620940998157423,-2.743684563522538,0.6339450772954924,12.398356046076794,0.0,22.5224989220803,0.3445909980788846,399.8202380656361,-5.216659785513208
2018-09-11 16:03:25.755006790,43.2099990845,33.1024246216,-3.07999992371,-17.6291904449,83.0,45.4665527344,False,0.5156733478350447,1.2723818356320702,-0.20563072189207168,-0.24199381272088488,-0.3177638904342455,-0.8933438333874406,0.31122068117946944,-0.3074598890011201,-0.18976665724832065,-2.7159017838063453,0.63743225,12.532833213188642,0.0,22.55102893785125,0.3620033528847393,399.52047204735726,-5.047452848624905
2018-09-11 16:03:25.842179537,43.430000305200004,33.1024246216,-1.26999998093,-17.6291904449,87.0,45.4665527344,False,0.5145893294226419,1.2725120793175126,-0.2132713025914056,-0.23597481562637235,-0.31019189380529394,-0.8952661033407928,0.28593112519597697,-0.31185167888530707,-0.18129614366248592,-2.6137259863939915,0.63743225,12.91954920592654,0.0,22.616798353119865,0.38178632135966756,399.22900405913526,-5.308195338625874
2018-09-11 16:03:25.907115936,43.559997558599996,33.1024246216,0.389999985695,-17.6291904449,87.0,45.4665527344,False,0.5135053110102391,1.272642323002955,-0.22091188329073946,-0.2299558185318598,-0.30261989717634236,-0.8971883732941451,0.26064156921248444,-0.31624346876949405,-0.1728256300766512,-2.511550188981637,0.63743225,13.306265198664436,0.0,22.682567768388477,0.4015692898345958,398.9375360709132,-5.568937828626842
2018-09-11 16:03:25.994344473,43.7099990845,33.1024246216,0.399999976158,-17.6291904449,87.0,45.4665527344,False,0.5124212925978364,1.2727725666883976,-0.22855246399007337,-0.22393682143734728,-0.2950479005473907,-0.8991106432474973,0.2353520132289919,-0.3206352586536811,-0.16435511649081647,-2.4093743915692833,0.63743225,13.692981191402334,0.0,22.748337183657092,0.421352258309524,398.64606808269116,-5.829680318627811
2018-09-11 16:03:26.077130079,43.8499984741,36.4810523987,2.00999999046,-12.729165077200001,91.0,53.6924209595,False,0.5113372741854336,1.2729028103738398,-0.23619304468940727,-0.21791782434283477,-0.28747590391843914,-0.9010329132008497,0.2100624572454994,-0.32502704853786807,-0.1558846029049817,-2.3071985941569295,0.63743225,14.07969718414023,0.0,22.814106598925708,0.4411352267844523,398.35460009446916,-6.090422808628779
2018-09-11 16:03:26.094191313,43.86999893189999,36.4810523987,2.00999999046,-12.729165077200001,91.0,53.6924209595,False,0.5102532557730308,1.2730330540592822,-0.24383362538874115,-0.21189882724832224,-0.27990390728948755,-0.9029551831542019,0.18477290126200688,-0.32941883842205505,-0.14741408931914698,-2.2050227967445752,0.63743225,14.466413176878127,0.0,22.879876014194323,0.4609181952593805,398.0631321062471,-6.351165298629748
2018-09-11 16:03:26.142013550,43.9599990845,36.4810523987,3.47000002861,-12.729165077200001,91.0,53.6924209595,False,0.5091692373606281,1.2731632977447247,-0.251474206088075,-0.20587983015380973,-0.27233191066053597,-0.9048774531075542,0.15948334527851438,-0.33381062830624203,-0.13894357573331226,-2.102846999332221,0.63743225,14.853129169616023,0.0,22.94564542946294,0.4807011637343087,397.77166411802506,-6.611907788630717
2018-09-11 16:03:26.168260813,43.9899978638,36.4810523987,3.47000002861,-12.729165077200001,91.0,53.6924209595,False,0.5080852189482253,1.2732935414301672,-0.25911478678740896,-0.1998608330592972,-0.2647599140315844,-0.9067997230609064,0.13419378929502185,-0.338202418190429,-0.13047306214747753,-2.000671201919867,0.63743225,15.239845162353921,0.0,23.01141484473155,0.5004841322092369,397.48019612980306,-6.872650278631685
