time,roll_commanded,roll_measured,pitch_commanded,pitch_measured,yaw_commanded,yaw_measured,label,wind_estimation_linear_x,wind_estimation_linear_y,orientation_x,orientation_y,orientation_z,orientation_w,angular_velocity_x,angular_velocity_y,angular_velocity_z,linear_acceleration_x,linear_acceleration_y,linear_acceleration_z,airspeed,groundspeed,throttle,altitude,climb
2018-07-18 20:00:31.317954063,-30.559999465900002,6.43778514862,-1.25,-1.69193923473,-120.0,-95.8139648438,False,-0.976462534844,1.73356142092,0.00789388307323,-0.13958382924,-0.989825601977,0.0264446383225,-1.05613052845,-0.0465226247907,0.0501267239451,0.43149259999999995,0.196133,11.4737805,16.94880867,17.6018390656,0.5,409.66998291,-0.387511253357
2018-07-18 20:00:31.366692543,-30.559999465900002,6.43778514862,-1.23000001907,-1.69193923473,-120.0,-95.8139648438,False,-0.9754802947430212,1.7333109383950884,0.009281061780540511,-0.11514369893485867,-0.9909464577338021,0.027293180345759716,-1.0373430048829064,-0.013740021129874026,0.043541716873222,0.5211558751766784,0.24031490371024733,11.042357204946997,17.02195759624558,17.644904537715725,0.4933745567242491,409.6726356747085,-0.6962938527761254
2018-07-18 20:00:31.405431032,-31.7699985504,6.43778514862,-3.53999996185,-1.69193923473,-120.0,-95.8139648438,False,-0.9744980546420424,1.7330604558701768,0.010668240487851024,-0.09070356862971732,-0.9920673134906042,0.028141722369019434,-1.0185554813158126,0.019042582530951944,0.036956709801343995,0.6108191503533569,0.28449680742049466,10.610933909893994,17.095106522491164,17.68797000983145,0.48674911344849825,409.67528843941693,-1.0050764521952509
2018-07-18 20:00:31.461613894,-31.7699985504,6.43778514862,-3.56999993324,-1.69193923473,-120.0,-95.8139648438,False,-0.9735158145410636,1.732809973345265,0.012055419195161537,-0.06626343832457599,-0.9931881692474064,0.028990264392279152,-0.9997679577487191,0.051825186191777915,0.030371702729465995,0.7004824255300353,0.32867871113074204,10.17951061484099,17.168255448736748,17.731035481947174,0.4801236701727474,409.67794120412543,-1.3138590516143762
2018-07-18 20:00:31.512367009,-33.0499992371,16.0665798187,-5.92999982834,-0.472388863564,-120.0,-93.1274261475,False,-0.9725335744400848,1.7325594908203534,0.013442597902472049,-0.04182330801943464,-0.9943090250042085,0.02983880641553887,-0.9809804341816255,0.08460778985260389,0.02378669565758799,0.7901457007067139,0.37286061484098937,9.748087319787986,17.24140437498233,17.7741009540629,0.47349822689699644,409.68059396883393,-1.6226416510335018
2018-07-18 20:00:31.537873268,-33.0499992371,16.0665798187,-5.94000005722,-0.472388863564,-120.0,-93.1274261475,False,-0.971551334339106,1.7323090082954418,0.01482977660978256,-0.01738317771429329,-0.9954298807610106,0.030687348438798587,-0.9621929106145318,0.11739039351342986,0.017201688585709987,0.8798089758833922,0.4170425185512367,9.316664024734983,17.314553301227914,17.817166426178623,0.46687278362124557,409.6832467335424,-1.9314242504526271
2018-07-18 20:00:31.584070444,-34.0099983215,16.0665798187,-8.25,-0.472388863564,-120.0,-93.1274261475,False,-0.9705690942381272,1.73205852577053,0.016216955317093072,0.007056952590848042,-0.9965507365178127,0.031535890462058305,-0.9434053870474381,0.15017299717425583,0.010616681513831987,0.9694722510600706,0.4612244222614841,8.885240729681978,17.387702227473497,17.860231898294348,0.4602473403454947,409.6858994982509,-2.2402068498717527
2018-07-18 20:00:31.637412786,-34.0,16.0665798187,-8.269999504089999,-0.472388863564,-120.0,-93.1274261475,False,-0.9695868541371485,1.7318080432456184,0.017604134024403587,0.0314970828959894,-0.9976715922746149,0.03238443248531803,-0.9246178634803446,0.1829556008350818,0.004031674441953979,1.0591355262367492,0.5054063259717314,8.453817434628975,17.460851153719084,17.903297370410073,0.4536218970697438,409.6885522629594,-2.548989449290878
2018-07-18 20:00:31.664780617,-34.6499977112,16.0665798187,-10.5199995041,-0.472388863564,-120.0,-93.1274261475,False,-0.9686046140361697,1.7315575607207068,0.01970085972962191,0.051891284204748415,-0.9975102831356077,0.03287713309248764,-0.8869941965426396,0.19396167058973748,-3.3753960271716934e-05,1.0368713120141344,0.4924463008833922,8.146103469964665,17.50335966993145,17.945982107432155,0.43858656066037105,409.6803909136007,-2.523984277840283
2018-07-18 20:00:31.738173723,-34.6399993896,16.0665798187,-10.5199995041,-0.472388863564,-120.0,-93.1274261475,False,-0.9676223739351909,1.731307078195795,0.022653215638199647,0.06740657113551696,-0.9958028339751838,0.03294073081554859,-0.8266563567168446,0.17870780239871717,-0.0010608669079166812,0.8796357135159012,0.4105798322438162,7.987568403710248,17.50891945639788,17.988207722723676,0.4134098825310424,409.6591890149258,-2.096470323870318
2018-07-18 20:00:31.767452002,-34.8199996948,16.0665798187,-12.239999771099999,-0.472388863564,-121.0,-93.1274261475,False,-0.9662027584809187,1.731041764865689,0.025605571546777388,0.08292185806628552,-0.9940953848147597,0.033004328538609545,-0.7663185168910495,0.16345393420769683,-0.002087979855561646,0.722400115017668,0.32871336360424025,7.829033337455831,17.51447924286431,18.030433338015193,0.38823320440171377,409.6379871162509,-1.6689563699003536
2018-07-18 20:00:31.805234909,-34.8099975586,-5.072975635530001,-12.2299995422,-2.27001690865,-121.0,-93.6686782837,False,-0.9647183466780106,1.730774254379258,0.028557927455355125,0.09843714499705405,-0.9923879356543356,0.033067926261670495,-0.7059806770652545,0.1482000660166765,-0.0031150928032066105,0.5651645165194347,0.24684689496466428,7.670498271201414,17.520039029330743,18.072658953306714,0.36305652627238516,409.61678521757597,-1.241442415930389
2018-07-18 20:00:31.904460192,-34.8199996948,-5.072975635530001,-12.619999885599999,-2.27001690865,-121.0,-93.6686782837,False,-0.9632339348751026,1.7305067438928268,0.03151028336393287,0.11395243192782262,-0.9906804864939116,0.03313152398473145,-0.6456428372394594,0.1329461978256562,-0.004142205750851575,0.40792891802120146,0.1649804263250883,7.511963204946997,17.525598815797174,18.114884568598235,0.33787984814305655,409.5955833189011,-0.8139284619604243
2018-07-18 20:00:31.983714104,-34.5099983215,-5.072975635530001,-10.3499994278,-2.27001690865,-121.0,-93.6686782837,False,-0.9617495230721944,1.7302392334063958,0.03446263927251061,0.12946771885859115,-0.9889730373334875,0.0331951217077924,-0.5853049974136644,0.11769232963463588,-0.005169318698496539,0.25069331952296825,0.08311395768551233,7.35342813869258,17.531158602263606,18.157110183889753,0.31270317001372794,409.5743814202262,-0.38641450799045973
2018-07-18 20:00:32.015774488,-34.4899978638,-5.072975635530001,-10.3400001526,-2.27001690865,-121.0,-93.6686782837,False,-0.9602651112692863,1.7299717229199647,0.037414995181088345,0.14498300578935971,-0.9872655881730635,0.03325871943085336,-0.5249671575878694,0.10243846144361557,-0.006196431646141504,0.09345772102473515,0.0012474890459363008,7.194893072438163,17.536718388730037,18.199335799181274,0.2875264918843993,409.5531795215513,0.04109944597950488
2018-07-18 20:00:32.053159952,-34.4799995422,-5.072975635530001,-10.3199996948,-2.27001690865,-121.0,-93.6686782837,False,-0.9587806994663781,1.7297042124335336,0.04036735108966609,0.16049829272012828,-0.9855581390126394,0.033322317153914316,-0.4646293177620743,0.08718459325259525,-0.007223544593786468,-0.06377787747349806,-0.08061897959363962,7.036358006183746,17.54227817519647,18.24156141447279,0.2623498137550707,409.53197762287635,0.46861339994946993
2018-07-18 20:00:32.080571413,-33.9599990845,-5.072975635530001,-8.210000038150001,-2.27001690865,-121.0,-93.6686782837,False,-0.95729628766347,1.7294367019471024,0.04054349326709047,0.164902648743212,-0.9847277521429646,0.03651085196829329,-0.40514545011008485,0.07136407207578341,0.02214198558532119,-0.2056970826855123,-0.13892176625441693,7.35734386819788,17.540071561545584,18.253844042112014,0.23477030971950677,409.44830354596115,0.5829455846190812
2018-07-18 20:00:32.123507023,-33.9500007629,-5.072975635530001,-8.18999958038,-2.27001690865,-121.0,-93.6686782837,False,-0.9558118758605618,1.7291691914606713,0.04043384873689612,0.16816323246697526,-0.9839876510973373,0.04002107148324912,-0.34574949135834016,0.05548521897396362,0.054636170203947516,-0.3460396003533568,-0.194798879770318,7.727692178710248,17.537065465529682,18.263044303375267,0.20694345595830094,409.35819850952123,0.6650384695077738
2018-07-18 20:00:32.215844393,-33.3899993896,-18.5281047821,-6.00999975204,-5.21502399445,-121.0,-93.02304077149999,False,-0.9543274640576537,1.7289016809742401,0.04032420420670177,0.1714238161907385,-0.9832475500517102,0.04353129099820495,-0.28635353260659546,0.039606365872143834,0.08713035482257384,-0.4863821180212013,-0.25067599328621903,8.098040489222615,17.53405936951378,18.272244564638516,0.17911660219709508,409.2680934730813,0.7471313543964664
2018-07-18 20:00:32.240887403,-33.3899993896,-18.5281047821,-6.00999975204,-5.21502399445,-121.0,-93.02304077149999,False,-0.9529129381212826,1.7287963851373143,0.04021455967650742,0.17468439991450174,-0.982507449006083,0.04704151051316077,-0.2269575738548507,0.023727512770324047,0.11962453944120016,-0.6267246356890458,-0.3065531068021201,8.468388799734981,17.53105327349788,18.28144482590177,0.15128974843588927,409.17798843664133,0.829224239285159
2018-07-18 20:00:32.290379763,-32.75,-18.5281047821,-6.3599996566799994,-5.21502399445,-121.0,-93.02304077149999,False,-0.9515227203124028,1.7287475117871731,0.04010491514631308,0.177944983638265,-0.9817673479604558,0.05055173002811661,-0.16756161510310602,0.00784865966850426,0.1521187240598265,-0.7670671533568904,-0.3624302203180212,8.838737110247349,17.52804717748198,18.290645087165018,0.12346289467468341,409.0878834002014,0.9113171241738516
2018-07-18 20:00:32.341727734,-32.75,-18.5281047821,-6.3599996566799994,-5.21502399445,-121.0,-93.02304077149999,False,-0.950132502503523,1.7286986384370318,0.03999527061611873,0.18120556736202825,-0.9810272469148286,0.05406194954307243,-0.10816565635136133,-0.008030193433315527,0.18461290867845281,-0.9074096710247348,-0.41830733383392227,9.209085420759717,17.525041081466078,18.29984534842827,0.09563604091347758,408.9977783637615,0.9934100090625442
2018-07-18 20:00:32.448870659,-31.969999313400002,-18.5281047821,-7.079999923710001,-5.21502399445,-121.0,-93.02304077149999,False,-0.9487422846946431,1.7286497650868904,0.03988562608592438,0.1844661510857915,-0.9802871458692014,0.05757216905802827,-0.04876969759961658,-0.023909046535135314,0.21710709329707914,-1.0477521886925794,-0.47418444734982323,9.579433731272085,17.522034985450176,18.30904560969152,0.06780918715227174,408.90767332732156,1.0755028939512368
2018-07-18 20:00:32.502493858,-30.979999542199998,-18.5281047821,-7.839999675750001,-5.21502399445,-121.0,-93.02304077149999,False,-0.9473520668857632,1.728600891736749,0.04020106653495477,0.18707445950490634,-0.979473251699447,0.062319024996327556,-0.010799893678272615,-0.032944085352873506,0.23632280775995054,-1.150202226590106,-0.4893622307420495,9.801018973056536,17.503187122290637,18.312337929328447,0.05047703244770176,408.81756683502823,1.0663864402765248
2018-07-18 20:00:32.538596869,-30.969999313400002,-18.5281047821,-7.849999904630001,-5.21502399445,-121.0,-93.02304077149999,False,-0.9459618490768834,1.7285520183866079,0.04127221361371802,0.188523167382424,-0.9785281697534665,0.06926434568723745,-0.01092103167764099,-0.02981234322113322,0.23193235305703536,-1.185287856007067,-0.43218564946996474,9.758136537102473,17.4561761175424,18.305127241629684,0.05180212051048445,408.7274577545512,0.8951200513779823
2018-07-18 20:00:32.629529715,-29.9499988556,-18.5281047821,-8.60999965668,-5.21502399445,-122.0,-93.02304077149999,False,-0.9445716312680035,1.7285031450364665,0.04234336069248127,0.18997187525994166,-0.9775830878074858,0.07620966637814734,-0.011042169677009364,-0.026680601089392936,0.22754189835412014,-1.2203734854240282,-0.37500906819787994,9.715254101148409,17.40916511279417,18.29791655393092,0.05312720857326714,408.6373486740742,0.72385366247944
2018-07-18 20:00:32.703550816,-28.739999771100003,-21.2624759674,-9.269999504089999,-5.75887298584,-122.0,-95.90539550780001,False,-0.9431814134591237,1.7284542716863251,0.043414507771244525,0.19142058313745935,-0.9766380058615053,0.08315498706905723,-0.01116330767637774,-0.023548858957652654,0.22315144365120496,-1.2554591148409893,-0.31783248692579513,9.672371665194346,17.362154108045935,18.290705866232155,0.05445229663604982,408.54723959359717,0.5525872735808975
2018-07-18 20:00:32.732473850,-28.729999542199998,-21.2624759674,-9.269999504089999,-5.75887298584,-122.0,-95.90539550780001,False,-0.9417911956502438,1.7284053983361838,0.04448565485000777,0.19286929101497702,-0.9756929239155248,0.09010030775996714,-0.011284445675746112,-0.020417116825912372,0.21876098894828977,-1.2905447442579505,-0.26065590565371033,9.629489229240281,17.315143103297704,18.283495178533393,0.055777384698832505,408.45713051312015,0.38132088468235514
2018-07-18 20:00:32.785442114,-27.489999771100003,-21.2624759674,-9.90999984741,-5.75887298584,-122.0,-95.90539550780001,False,-0.9398109613563357,1.7286358086534277,0.045556801928771026,0.19431799889249468,-0.9747478419695441,0.09704562845087703,-0.011405583675114487,-0.017285374694172087,0.21437053424537458,-1.3256303736749115,-0.20347932438162547,9.586606793286219,17.268132098549472,18.27628449083463,0.057102472761615196,408.36702143264307,0.21005449578381274
2018-07-18 20:00:32.860159397,-27.469999313400002,-21.2624759674,-9.90999984741,-5.75887298584,-122.0,-95.90539550780001,False,-0.9374580850718833,1.7290426086553359,0.04662794900753428,0.19576670677001234,-0.9738027600235636,0.10399094914178691,-0.011526721674482862,-0.014153632562431805,0.2099800795424594,-1.3607160030918728,-0.14630274310954067,9.543724357332154,17.221121093801237,18.269073803135864,0.05842756082439788,408.27691235216605,0.03878810688527046
2018-07-18 20:00:32.902216673,-26.159999847399998,-21.2624759674,-10.5500001907,-5.75887298584,-122.0,-95.90539550780001,False,-0.9351052087874311,1.7294494086572438,0.04769909608629753,0.19721541464753004,-0.972857678077583,0.1109362698326968,-0.011647859673851237,-0.01102189043069152,0.20558962483954418,-1.3958016325088338,-0.08912616183745586,9.50084192137809,17.174110089053006,18.2618631154371,0.05975264888718057,408.18680327168903,-0.13247828201327194
2018-07-18 20:00:32.989561558,-24.719999313400002,-21.2624759674,-11.170000076300001,-5.75887298584,-122.0,-95.90539550780001,False,-0.9327523325029788,1.729856208659152,0.048748192499596825,0.19846038798433216,-0.9720756385261166,0.1150028139756484,-0.007769778143804597,-0.0064768825358159044,0.20147066816141168,-1.3864974433745583,-0.1323551225265017,9.434707675706713,17.153776549589224,18.265395936224028,0.05892226036783675,408.099930564318,-0.36251654407500866
2018-07-18 20:00:33.061554193,-24.709999084499998,-21.2624759674,-11.170000076300001,-5.75887298584,-122.0,-95.90539550780001,False,-0.9303994562185265,1.73026300866106,0.04979222810442898,0.1996586025740848,-0.9713310185406042,0.11840865530431448,-0.0029738429512692604,-0.0016075185641551259,0.19741402250536044,-1.3670054270318022,-0.19862797809187271,9.363236949116606,17.139565707075974,18.271394480269965,0.05759717230505407,408.01380063110247,-0.6060434327643638
2018-07-18 20:00:33.107803345,-23.229999542199998,-22.1486797333,-11.779999733,-7.90377187729,-122.0,-101.61457824700001,False,-0.9280465799340742,1.7306698086629682,0.050836263709261136,0.20085681716383746,-0.9705863985550918,0.12181449663298055,0.0018220922412660757,0.003261845407505652,0.1933573768493092,-1.3475134106890458,-0.26490083365724376,9.291766222526501,17.12535486456272,18.2773930243159,0.056272084242271384,407.9276706978869,-0.8495703214537189
2018-07-18 20:00:33.151735783,-23.219999313400002,-22.1486797333,-11.769999504100001,-7.90377187729,-122.0,-101.61457824700001,False,-0.9256937036496219,1.7310766086648763,0.05188029931409329,0.2020550317535901,-0.9698417785695794,0.12522033796164664,0.006618027433801412,0.00813120937916643,0.18930073119325797,-1.3280213943462897,-0.33117368922261475,9.220295495936396,17.11114402204947,18.283391568361836,0.05494699617948869,407.8415407646714,-1.093097210143074
2018-07-18 20:00:33.226506710,-21.6899986267,-22.1486797333,-12.3499994278,-7.90377187729,-122.0,-101.61457824700001,False,-0.9233408273651696,1.7314834086667843,0.052924334918925446,0.20325324634334277,-0.9690971585840671,0.12862617929031273,0.011413962626336748,0.013000573350827207,0.18524408553720673,-1.3085293780035334,-0.3974465447879858,9.14882476934629,17.09693317953622,18.289390112407773,0.05362190811670601,407.75541083145583,-1.3366240988324292
2018-07-18 20:00:33.288723707,-20.0699996948,-22.1486797333,-12.769999504100001,-7.90377187729,-122.0,-101.61457824700001,False,-0.9209879510807173,1.7318902086686925,0.0539683705237576,0.2044514609330954,-0.9683525385985546,0.13203202061897878,0.016209897818872082,0.017869937322487983,0.1811874398811555,-1.2890373616607773,-0.4637194003533568,9.077354042756184,17.082722337022968,18.29538865645371,0.052296820053923325,407.6692808982403,-1.5801509875217843
2018-07-18 20:00:33.337139368,-20.0599994659,-22.1486797333,-12.769999504100001,-7.90377187729,-122.0,-101.61457824700001,False,-0.9186325669126078,1.7325041692161836,0.05501240612858976,0.20564967552284807,-0.9676079186130423,0.13543786194764487,0.021005833011407418,0.022739301294148764,0.17713079422510425,-1.269545345318021,-0.5299922559187278,9.005883316166077,17.068511494509718,18.301387200499644,0.050971731991140634,407.58315096502474,-1.8236778762111394
2018-07-18 20:00:33.388773918,-18.6499996185,-22.1486797333,-13.2999992371,-7.90377187729,-122.0,-101.61457824700001,False,-0.9162745076685972,1.7333391010122967,0.05655232207488481,0.20535194446330746,-0.9670612983930776,0.13905559157768904,0.030114391917384433,0.02704372894111696,0.17260051858304593,-1.2583699226148408,-0.5480981733215549,8.931986916431097,17.04164273161484,18.30921558607915,0.0500000007451,407.4736993476043,-2.0047368641075973
2018-07-18 20:00:33.449878931,-18.6299991608,-22.9166564941,-13.2999992371,-9.48891544342,-122.0,-104.30751037600001,False,-0.9139164484245865,1.7341740328084096,0.05945590896020283,0.20094036286821026,-0.9670591775283692,0.14325601403652297,0.05108266603532613,0.029794581695180566,0.1667677604794682,-1.2700651324204946,-0.43374501077738525,8.851419915547703,16.979964687670495,18.32207603587597,0.0500000007451,407.30011309862016,-2.0140091248235867
2018-07-18 20:00:33.499242544,-17.0900001526,-22.9166564941,-13.7999992371,-9.48891544342,-122.0,-104.30751037600001,False,-0.911558389180576,1.7350089646045228,0.06235949584552085,0.1965287812731131,-0.9670570566636607,0.1474564364953569,0.07205094015326782,0.03254543444924417,0.16093500237589045,-1.2817603422261483,-0.31939184823321565,8.770852914664312,16.918286643726148,18.334936485672788,0.0500000007451,407.1265268496361,-2.023281385539576
2018-07-18 20:00:33.530705929,-17.079999923699997,-22.9166564941,-13.809999465899999,-9.48891544342,-122.0,-104.30751037600001,False,-0.9092003299365653,1.735843896400636,0.06526308273083886,0.1921171996780159,-0.9670549357989523,0.15165685895419082,0.09301921427120952,0.03529628720330777,0.15510224427231273,-1.293455552031802,-0.20503868568904604,8.690285913780919,16.856608599781804,18.34779693546961,0.0500000007451,406.95294060065197,-2.0325536462555656
2018-07-18 20:00:33.627886534,-15.649999618499999,-22.9166564941,-14.4099998474,-9.48891544342,-122.0,-104.30751037600001,False,-0.9068422706925547,1.7366788281967491,0.06816666961615689,0.18770561808291875,-0.9670528149342438,0.15585728141302474,0.11398748838915122,0.03804713995737138,0.14926948616873498,-1.3051507618374558,-0.09068552314487643,8.609718912897527,16.794930555837457,18.36065738526643,0.0500000007451,406.77935435166785,-2.041825906971555
2018-07-18 20:00:33.687595844,-14.3899993896,-22.9166564941,-15.019999504100001,-9.48891544342,-122.0,-104.30751037600001,False,-0.9044842114485441,1.737513759992862,0.07107025650147492,0.18329403648782155,-0.9670506940695354,0.16005770387185866,0.1349557625070929,0.04079799271143498,0.14343672806515725,-1.3168459716431096,0.023667639399293172,8.529151912014134,16.73325251189311,18.37351783506325,0.0500000007451,406.6057681026838,-2.051098167687544
2018-07-18 20:00:33.734475613,-14.380000114400001,-22.9166564941,-15.029999733,-9.48891544342,-122.0,-104.30751037600001,False,-0.9021261522045335,1.7383486917889752,0.07397384338679293,0.17888245489272436,-0.9670485732048268,0.1642581263306926,0.15592403662503462,0.04354884546549859,0.1376039699615795,-1.3285411814487633,0.13802080194346278,8.448584911130743,16.671574467948766,18.38637828486007,0.0500000007451,406.43218185369966,-2.0603704284035333
2018-07-18 20:00:33.801946640,-13.029999733,-22.9166564941,-15.5099992752,-9.48891544342,-122.0,-104.30751037600001,False,-0.8997680929605228,1.7391836235850884,0.07687743027211094,0.1744708732976272,-0.9670464523401184,0.1684585487895265,0.17689231074297632,0.04629969821956219,0.13177121185800178,-1.340236391254417,0.2523739644876324,8.36801791024735,16.60989642400442,18.399238734656887,0.0500000007451,406.2585956047156,-2.0696426891195228
2018-07-18 20:00:33.836922407,-13.019999504100001,-22.9166564941,-15.5099992752,-9.48891544342,-122.0,-104.30751037600001,False,-0.8976728690986253,1.7400063703822968,0.07947266570522155,0.16963908464508481,-0.9671017188910213,0.17156044974809895,0.17914143736501767,0.04840243177307173,0.13170833885672084,-1.3547384514134275,0.259131196819788,8.340781066077739,16.618646736319082,18.41868242859929,0.04809187340155265,406.0859643510742,-2.191065300480777
2018-07-18 20:00:33.889285803,-11.6599998474,-22.9166564941,-15.8899993896,-9.48891544342,-122.0,-104.30751037600001,False,-0.8960555277496607,1.7408069626360423,0.08194798668469594,0.16464388213686926,-0.9671793027702174,0.17423514790101413,0.1741108955164311,0.05025311897081025,0.1338893100618887,-1.3703320644876325,0.22404556740282688,8.33428372729682,16.654785853845585,18.440686273042754,0.045441696535514664,405.9137044845106,-2.356101937092968
2018-07-18 20:00:33.934056282,-11.649999618499999,-18.401220321700002,-15.899999618499999,-12.0657463074,-122.0,-107.93724823,False,-0.8944381864006961,1.741607554889788,0.08442330766417032,0.1596486796286537,-0.9672568866494134,0.17690984605392934,0.16908035366784452,0.05210380616854876,0.13607028126705653,-1.3859256775618374,0.18895993798586574,8.327786388515902,16.690924971372084,18.46269011748622,0.04279151966947668,405.74144461794697,-2.5211385737051586
2018-07-18 20:00:34.005847454,-10.3499994278,-18.401220321700002,-16.1800003052,-12.0657463074,-122.0,-107.93724823,False,-0.8928208450517314,1.7424081471435335,0.0868986286436447,0.15465347712043817,-0.9673344705286095,0.17958454420684453,0.16404981181925796,0.053954493366287284,0.1382512524722244,-1.4015192906360423,0.15387430856890463,8.321289049734983,16.727064088898587,18.484693961929683,0.0401413428034387,405.5691847513834,-2.6861752103173497
2018-07-18 20:00:34.032426357,-10.3499994278,-18.401220321700002,-16.1900005341,-12.0657463074,-122.0,-107.93724823,False,-0.8912035037027667,1.7432087393972793,0.08937394962311909,0.14965827461222264,-0.9674120544078058,0.18225924235975974,0.1590192699706714,0.055805180564025794,0.14043222367739222,-1.4171129037102472,0.1187886791519435,8.314791710954065,16.76320320642509,18.506697806373143,0.03749116593740071,405.3969248848198,-2.8512118469295404
2018-07-18 20:00:34.083433390,-9.199999809269999,-18.401220321700002,-16.3699989319,-12.0657463074,-122.0,-107.93724823,False,-0.8895861623538021,1.7440093316510248,0.09184927060259347,0.14466307210400708,-0.9674896382870019,0.18493394051267492,0.1539887281220848,0.05765586776176432,0.14261319488256008,-1.4327065167844522,0.08370304973498238,8.308294372173146,16.79934232395159,18.528701650816608,0.034840989071362724,405.22466501825613,-3.016248483541731
2018-07-18 20:00:34.144522429,-9.18999958038,-18.401220321700002,-16.3799991608,-12.0657463074,-122.0,-107.93724823,False,-0.8879688210048374,1.7448099239047705,0.09432459158206785,0.13966786959579153,-0.967567222166198,0.18760863866559013,0.14895818627349824,0.05950655495950283,0.1447941660877279,-1.448300129858657,0.04861742031802124,8.301797033392226,16.83548144147809,18.550705495260072,0.03219081220532474,405.05240515169254,-3.1812851201539223
2018-07-18 20:00:34.193070173,-8.15999984741,-18.401220321700002,-16.3799991608,-12.0657463074,-123.0,-107.93724823,False,-0.8863514796558727,1.745610516158516,0.09671858530194047,0.13463659127157104,-0.9676149188001856,0.1902432266380972,0.14570704386854064,0.05957335184323592,0.14478333466792245,-1.4609656089222613,0.02839770203180205,8.309489882508835,16.871561023444343,18.574849597168022,0.029540635382071457,404.8693495031607,-3.3470799699710247
2018-07-18 20:00:34.232159376,-8.14999961853,-18.401220321700002,-16.3899993896,-12.0657463074,-123.0,-107.93724823,False,-0.8847341383069081,1.7464111084122615,0.09872471055294312,0.12943325905563466,-0.9675200762647174,0.19268651990404242,0.15094226804089048,0.0511323641524815,0.13431929072901344,-1.4596661411660776,0.07907694452296812,8.384859012367492,16.907356666584803,18.609201080829685,0.026890458762868275,404.6348062790883,-3.516490913534629
2018-07-18 20:00:34.271914482,-7.149999618530001,-18.401220321700002,-15.420000076300001,-12.0657463074,-123.0,-107.93724823,False,-0.8830637915100318,1.747294181349152,0.10073083580394576,0.12422992683969825,-0.9674252337292492,0.19512981316998765,0.1561774922132403,0.04269137646172708,0.12385524679010443,-1.458366673409894,0.1297561870141342,8.46022814222615,16.943152309725264,18.643552564491344,0.024240282143665096,404.40026305501584,-3.685901857098233
2018-07-18 20:00:34.308538914,-7.139999866489999,-13.437929153399999,-15.429999351500001,-13.766091346700001,-123.0,-110.567993164,False,-0.8812117117488869,1.7484600451996821,0.10273696105494841,0.11902659462376185,-0.967330391193781,0.19757310643593287,0.16141271638559013,0.03425038877097267,0.11339120285119542,-1.4570672056537102,0.18043542950530028,8.535597272084805,16.978947952865724,18.677904048153003,0.021590105524461913,404.16571983094343,-3.8553128006618373
2018-07-18 20:00:34.394474745,-6.21999979019,-13.437929153399999,-14.519999504100001,-13.766091346700001,-123.0,-110.567993164,False,-0.879359631987742,1.7496259090502122,0.10474308630595106,0.11382326240782545,-0.9672355486583127,0.2000163997018781,0.16664794055793994,0.02580940108021825,0.1029271589122864,-1.4557677378975264,0.23111467199646635,8.610966401943463,17.014743596006184,18.712255531814666,0.01893992890525873,403.931176606871,-4.024723744225442
2018-07-18 20:00:34.414217234,-6.21999979019,-13.437929153399999,-14.519999504100001,-13.766091346700001,-123.0,-110.567993164,False,-0.8775075522265972,1.7507917729007423,0.1067492115569537,0.10861993019188904,-0.9671407061228445,0.20245969296782332,0.17188316473028975,0.01736841338946383,0.09246311497337739,-1.4544682701413427,0.2817939144876324,8.68633553180212,17.05053923914664,18.746607015476325,0.016289752286055552,403.69663338279855,-4.194134687789046
2018-07-18 20:00:34.470020294,-5.32999992371,-13.437929153399999,-13.4799995422,-13.766091346700001,-123.0,-110.567993164,False,-0.8756554724654523,1.7519576367512724,0.10875533680795635,0.10341659797595265,-0.9670458635873763,0.20490298623376854,0.1771183889026396,0.008927425698709412,0.08199907103446838,-1.453168802385159,0.3324731569787985,8.761704661660778,17.0863348822871,18.780958499137988,0.013639575666852373,403.46209015872614,-4.36354563135265
2018-07-18 20:00:34.510931253,-5.32999992371,-13.437929153399999,-13.489999771099999,-13.766091346700001,-123.0,-110.567993164,False,-0.8738033927043074,1.7531235006018024,0.110761462058959,0.09821326576001624,-0.9669510210519081,0.20734627949971376,0.18235361307498943,0.00048643800795499653,0.07153502709555938,-1.4518693346289753,0.38315239946996454,8.837073791519435,17.12213052542756,18.815309982799647,0.01098939904764919,403.22754693465373,-4.532956574916255
2018-07-18 20:00:34.588346481,-4.55999994278,-13.437929153399999,-12.529999733,-13.766091346700001,-123.0,-110.567993164,False,-0.8719513129431625,1.7542893644523325,0.11142697673559364,0.09411017534465281,-0.9670033718232757,0.20875197347335686,0.1838727100836555,-0.006700156170990343,0.06371335136990336,-1.4578988650176676,0.3662419924028269,9.02074922729682,17.176097731725793,18.857697240840814,0.009169611102461346,403.0029705035106,-4.595011487025195
2018-07-18 20:00:34.611159801,-4.55999994278,-13.437929153399999,-12.529999733,-13.766091346700001,-123.0,-110.567993164,False,-0.8700992331820177,1.7554552283028624,0.11129382979345583,0.09066254812963073,-0.9671434122242474,0.20953952318775618,0.18317794410119081,-0.013139452087581334,0.057465852452142765,-1.4682946070671377,0.3090654111307421,9.268947568727915,17.24089055011802,18.90487176872509,0.007844522792857106,402.7843317362403,-4.593109614437739
2018-07-18 20:00:34.724548817,-3.8599998951,-13.437929153399999,-11.579999923699999,-13.766091346700001,-123.0,-110.567993164,False,-0.8682471534208729,1.7566210921533925,0.11116068285131801,0.08721492091460865,-0.9672834526252191,0.21032707290215547,0.18248317811872616,-0.019578748004172322,0.05121835353438216,-1.4786903491166077,0.25188882985865735,9.51714591015901,17.305683368510245,18.952046296609367,0.006519434483252865,402.56569296897,-4.591207741850283
2018-07-18 20:00:34.767016888,-3.21000003815,-8.31015777588,-10.619999885599999,-14.8174791336,-123.0,-113.227394104,False,-0.8664782010111202,1.7577404450435339,0.11102753590918021,0.08376729369958658,-0.9674234930261908,0.21111462261655475,0.18178841213626148,-0.02601804392076331,0.044970854616621564,-1.4890860911660777,0.19471224858657252,9.765344251590106,17.370476186902472,18.99922082449364,0.005194346173648625,402.3470542016997,-4.589305869262827
2018-07-18 20:00:34.843415737,-3.21000003815,-8.31015777588,-10.619999885599999,-14.8174791336,-123.0,-113.227394104,False,-0.8654851038810283,1.7584256956367141,0.1108943889670424,0.08031966648456448,-0.9675635334271625,0.21190217233095404,0.18109364615379683,-0.0324573398373543,0.03872335569886096,-1.4994818332155475,0.1375356673144877,10.013542593021201,17.4352690052947,19.046395352377917,0.003869257864044384,402.1284154344293,-4.587403996675371
2018-07-18 20:00:34.858141661,-3.21000003815,-8.31015777588,-10.619999885599999,-14.8174791336,-123.0,-113.227394104,False,-0.8644920067509364,1.7591109462298942,0.1107612420249046,0.0768720392695424,-0.9677035738281342,0.21268972204535333,0.18039888017133215,-0.03889663575394529,0.03247585678110036,-1.5098775752650175,0.08035908604240288,10.261740934452297,17.500061823686924,19.093569880262194,0.0025441695544401437,401.909776667159,-4.585502124087915
2018-07-18 20:00:34.931160927,-2.59999990463,-8.31015777588,-9.65999984741,-14.8174791336,-123.0,-113.227394104,False,-0.8634989096208445,1.7597961968230744,0.11062809508276679,0.07342441205452033,-0.9678436142291059,0.21347727175975265,0.1797041141888675,-0.045335931670536275,0.02622835786333976,-1.5202733173144876,0.02318250477031808,10.509939275883392,17.56485464207915,19.140744408146467,0.0012190812448359036,401.6911378998887,-4.583600251500459
2018-07-18 20:00:35.008192777,-2.02999997139,-8.31015777588,-8.72000026703,-14.8174791336,-123.0,-113.227394104,False,-0.8625058124907526,1.7604814474162547,0.1103670693410357,0.0700217390024251,-0.9680039501562543,0.2141904493722226,0.17812049012375655,-0.051915754330445214,0.01969232836690744,-1.530149272261484,-0.02900412031802121,10.737242175795053,17.629919975436042,19.18745894824099,0.0,401.47112098899294,-4.587126740300176
2018-07-18 20:00:35.023166180,-2.02999997139,-8.31015777588,-8.72000026703,-14.8174791336,-123.0,-113.227394104,False,-0.8615127153606608,1.761166698009435,0.10863543740398181,0.0671360388239887,-0.9683976846344345,0.21404834781250529,0.16631499810821326,-0.06011163453851058,0.009838197215750194,-1.5340476755300352,-0.02380624929328623,10.724247498233217,17.698119230886572,19.22888362875336,0.0,401.2352554264046,-4.653079385052385
2018-07-18 20:00:35.087771177,-1.49000000954,-8.31015777588,-7.7899999618499995,-14.8174791336,-123.0,-113.227394104,False,-0.8605196182305689,1.761851948602615,0.10690380546692793,0.06425033864555231,-0.9687914191126148,0.21390624625278798,0.15450950609266997,-0.06830751474657595,-1.5933935407049654e-05,-1.5379460787985866,-0.018608378268551246,10.711252820671378,17.766318486337102,19.270308309265726,0.0,400.99938986381625,-4.719032029804593
2018-07-18 20:00:35.137183189,-1.49000000954,-5.2457771301300005,-7.7999997139,-14.124470710799999,-123.0,-114.305374146,False,-0.859526521100477,1.7625371991957952,0.10517217352987404,0.06136463846711591,-0.969185153590795,0.21376414469307067,0.14270401407712668,-0.07650339495464133,-0.009870065086564295,-1.5418444820671378,-0.013410507243816264,10.698258143109541,17.834517741787632,19.311732989778093,0.0,400.7635243012279,-4.784984674556802
2018-07-18 20:00:35.211544991,-1.06999993324,-5.2457771301300005,-6.829999923709999,-14.124470710799999,-123.0,-114.305374146,False,-0.8585334239703851,1.7632224497889755,0.10344054159282015,0.05847893828867951,-0.9695788880689752,0.21362204313335334,0.13089852206158342,-0.0846992751627067,-0.019724196237721543,-1.545742885335689,-0.008212636219081283,10.685263465547704,17.902716997238162,19.35315767029046,0.0,400.5276587386396,-4.85093731930901
2018-07-18 20:00:35.273553371,-0.7400000095370001,-5.2457771301300005,-6.019999980930001,-14.124470710799999,-123.0,-114.305374146,False,-0.8575403268402932,1.7639077003821555,0.10170890965576626,0.055593238110243116,-0.9699726225471554,0.21347994157363603,0.11909303004604013,-0.09289515537077206,-0.029578327388878785,-1.5496412886042403,-0.003014765194346302,10.672268787985866,17.970916252688692,19.39458235080283,0.0,400.29179317605127,-4.916889964061219
2018-07-18 20:00:35.305145741,-0.7400000095370001,-5.2457771301300005,-6.019999980930001,-14.124470710799999,-123.0,-114.305374146,False,-0.8572614856743357,1.7642055668343464,0.09997727771871237,0.052707537931806714,-0.9703663570253357,0.21333784001391873,0.10728753803049684,-0.10109103557883743,-0.03943245854003603,-1.5535396918727915,0.002183105830388679,10.659274110424029,18.039115508139222,19.436007031315192,0.0,400.0559276134629,-4.982842608813428
2018-07-18 20:00:35.369207859,-0.409999996424,-5.2457771301300005,-5.1999998092699995,-14.124470710799999,-123.0,-114.305374146,False,-0.8570064530405159,1.7644905204818375,0.0982456457816585,0.04982183775337032,-0.9707600915035158,0.21319573845420142,0.09548204601495355,-0.1092869157869028,-0.04928658969119328,-1.5574380951413427,0.007380976855123664,10.646279432862192,18.107314763589752,19.47743171182756,0.0,399.8200620508746,-5.048795253565636
2018-07-18 20:00:35.406722307,-0.409999996424,-5.2457771301300005,-5.1999998092699995,-14.124470710799999,-123.0,-114.305374146,False,-0.856751420406696,1.7647754741293287,0.09610568229630072,0.046470395468121206,-0.9712096033026149,0.2127849599784417,0.08940020585336078,-0.11447575009078444,-0.04860907453423041,-1.553019904770318,0.004262254240282705,10.71437154328622,18.160000467499646,19.51180297665795,0.000706713765122259,399.6174121222085,-5.039391384529859
2018-07-18 20:00:35.514111279,-0.0999999940395,-5.2457771301300005,-4.42000007629,-14.124470710799999,-123.0,-114.305374146,False,-0.8564963877728763,1.7650604277768198,0.09360842870617704,0.04271142883941096,-0.9717079202575176,0.21213908920114488,0.08832656106397474,-0.11703341922850528,-0.03871636885766239,-1.5413246949646644,-0.006133487809187259,10.853414593197881,18.199111813811484,19.540002502766608,0.0020318020747264994,399.4438258732244,-4.964050565929594
2018-07-18 20:00:35.568966150,0.199999988079,-3.08388233185,-3.64999985695,-12.1150712967,-123.0,-114.433662415,False,-0.8562413551390565,1.765345381424311,0.09111117511605336,0.038952462210700714,-0.9722062372124205,0.21149321842384805,0.0872529162745887,-0.11959108836622613,-0.02882366318109437,-1.5296294851590106,-0.01652922985865722,10.99245764310954,18.238223160123322,19.568202028875266,0.0033568903843307395,399.2702396242403,-4.8887097473293295
2018-07-18 20:00:35.624115705,0.199999988079,-3.08388233185,-3.64999985695,-12.1150712967,-123.0,-114.433662415,False,-0.8559863225052368,1.7656303350718021,0.08861392152592969,0.03519349558199046,-0.9727045541673233,0.21084734764655125,0.08617927148520266,-0.12214875750394698,-0.01893095750452635,-1.517934275353357,-0.026924971908127183,11.131500693021202,18.27733450643516,19.59640155498392,0.00468197869393498,399.0966533752562,-4.813368928729064
2018-07-18 20:00:35.679547071,0.389999985695,-3.08388233185,-3.0199999809299998,-12.1150712967,-123.0,-114.433662415,False,-0.855731289871417,1.7659152887192933,0.08611666793580601,0.031434528953280215,-0.9732028711222261,0.21020147686925442,0.08510562669581662,-0.12470642664166784,-0.009038251827958331,-1.5062390655477031,-0.03732071395759715,11.270543742932864,18.316445852746998,19.624601081092578,0.006007067003539221,398.9230671262721,-4.738028110128799
2018-07-18 20:00:35.725867271,0.389999985695,-3.08388233185,-3.0199999809299998,-12.1150712967,-123.0,-114.433662415,False,-0.8554762572375972,1.7662002423667844,0.08361941434568233,0.02767556232456997,-0.973701188077129,0.2095556060919576,0.08403198190643056,-0.1272640957793887,0.0008544538486096875,-1.4945438557420494,-0.047716456007067115,11.409586792844523,18.355557199058836,19.652800607201236,0.007332155313143461,398.749480877288,-4.662687291528534
2018-07-18 20:00:35.768866062,0.52999997139,-3.08388233185,-2.49000000954,-12.1150712967,-123.0,-114.433662415,False,-0.8552212246037774,1.7664851960142756,0.08112216075555866,0.023916595695859723,-0.9741995050320318,0.20890973531466078,0.08295833711704452,-0.12982176491710953,0.010747159525177706,-1.4828486459363956,-0.058112198056537084,11.548629842756185,18.394668545370674,19.681000133309894,0.0086572436227477,398.5758946283039,-4.587346472928269
2018-07-18 20:00:35.830182314,0.52999997139,-3.08388233185,-2.49000000954,-12.1150712967,-123.0,-114.433662415,False,-0.855205720614,1.7665279335607067,0.07862490716543498,0.020157629067149473,-0.9746978219869347,0.20826386453736395,0.08188469232765848,-0.13237943405483038,0.02063986520174573,-1.4711534361307421,-0.06850794010600704,11.687672892667845,18.433779891682512,19.70919965941855,0.009982331932351941,398.4023083793198,-4.5120056543280045
2018-07-18 20:00:35.877853870,0.519999980927,-3.08388233185,-2.0199999809299998,-12.1150712967,-123.0,-114.433662415,False,-0.8552362798250001,1.7665240910877031,0.07576598035750848,0.0179748413456335,-0.9746946804893463,0.20932225659495407,0.06251635900028839,-0.1290529304751979,0.022341100426632152,-1.4556118017667845,-0.012232323144876447,11.729273187102475,18.45794396009576,19.70830535890212,0.01392226117290593,398.27448264569966,-4.346739122810919
2018-07-18 20:00:35.935581923,0.519999980927,-3.08388233185,-2.0199999809299998,-12.1150712967,-123.0,-114.433662415,False,-0.855266839036,1.7665202486146996,0.07290216607366573,0.015813353339079614,-0.9746847625261837,0.210403679231394,0.042900800152134676,-0.12564691104803358,0.023931640104874204,-1.4400181886925796,0.044944258127208356,11.76955668754417,18.481906038267137,19.70701789856643,0.017897526101716,398.14727529742225,-4.180257378957121
2018-07-18 20:00:36.038393974,0.439999997616,-0.37526676058799996,-1.53999996185,-9.298743247989998,-123.0,-114.09042358399999,False,-0.855297398247,1.766516406141696,0.07003835178982297,0.013651865332525728,-0.9746748445630212,0.21148510186783392,0.023285241303980964,-0.12224089162086926,0.02552217978311625,-1.4244245756183747,0.10212083939929317,11.809840187985866,18.505868116438517,19.70573043823074,0.02187279103052607,398.0200679491449,-4.013775635103322
2018-07-18 20:00:36.078610659,0.34999999404,-0.37526676058799996,-1.1399999856899998,-9.298743247989998,-123.0,-114.09042358399999,False,-0.855327957458,1.7665125636686925,0.06717453750598021,0.011490377325971841,-0.9746649265998586,0.21256652450427385,0.0036696824558272584,-0.11883487219370495,0.027112719461358303,-1.4088309625441697,0.15929742067137798,11.850123688427562,18.529830194609893,19.704442977895052,0.02584805595933614,397.8928606008675,-3.847293891249523
2018-07-18 20:00:36.161202431,0.34999999404,-0.37526676058799996,-1.1399999856899998,-9.298743247989998,-123.0,-114.09042358399999,False,-0.855358516669,1.766508721195689,0.06431072322213746,0.009328889319417956,-0.9746550086366961,0.2136479471407138,-0.015945876392326447,-0.11542885276654065,0.028703259139600354,-1.3932373494699648,0.21647400194346275,11.890407188869258,18.553792272781273,19.703155517559363,0.02982332088814621,397.7656532525901,-3.6808121473957245
2018-07-18 20:00:36.193479776,0.25999999046300004,-0.37526676058799996,-0.829999983311,-9.298743247989998,-123.0,-114.09042358399999,False,-0.85538907588,1.7665048787226854,0.06144690893829471,0.007167401312864068,-0.9746450906735336,0.21472936977715373,-0.035561435240480166,-0.11202283333937633,0.0302937988178424,-1.3776437363957599,0.2736505832155476,11.930690689310955,18.57775435095265,19.701868057223674,0.033798585816956286,397.63844590431273,-3.514330403541926
2018-07-18 20:00:36.208160400,0.25999999046300004,-0.37526676058799996,-0.829999983311,-9.298743247989998,-123.0,-114.09042358399999,False,-0.855419635091,1.7665010362496818,0.05858309465445195,0.005005913306310183,-0.974635172710371,0.21581079241359366,-0.05517699408863387,-0.10861681391221203,0.03188433849608445,-1.362050123321555,0.3308271644876324,11.970974189752651,18.60171642912403,19.700580596887985,0.03777385074576635,397.5112385560353,-3.347848659688127
2018-07-18 20:00:36.248939276,0.25999999046300004,-0.37526676058799996,-0.829999983311,-9.298743247989998,-123.0,-114.09042358399999,False,-0.855450194302,1.7664971937766782,0.05607593949864895,0.004022315094218868,-0.9746633842158428,0.21646369100536045,-0.06274757617273774,-0.1044922105891456,0.029963490439635355,-1.3561765290636043,0.3336859935512369,12.008398861130743,18.613221451611835,19.689687398595936,0.041166076818354054,397.4131813719611,-3.23916289789265
2018-07-18 20:00:36.317738295,0.129999995232,-0.37526676058799996,-0.599999964237,-9.298743247989998,-123.0,-114.09042358399999,False,-0.855497071141629,1.7664712617939928,0.05402271414216926,0.0045378493478072076,-0.9747401241359399,0.21657119535845232,-0.05498818782986892,-0.09945304594402193,0.02357360344812475,-1.362673867844523,0.26741313798586586,12.04218502279152,18.608872039593287,19.666568715632156,0.043816253437567836,397.35222439687277,-3.204035658716855
2018-07-18 20:00:36.358861685,0.129999995232,0.995557069778,-0.599999964237,-6.471579074859999,-123.0,-115.095077515,False,-0.855550623374788,1.76643629319371,0.05196948878568958,0.005053383601395547,-0.9748168640560371,0.2166786997115442,-0.04722879948700011,-0.09441388129889824,0.01718371645661415,-1.3691712066254418,0.20114028242049484,12.075971184452298,18.604522627574735,19.643450032668376,0.04646643005678162,397.2912674217844,-3.1689084195410597
2018-07-18 20:00:36.399066448,0.0,0.995557069778,-0.479999989271,-6.471579074859999,-123.0,-115.095077515,False,-0.855604175607947,1.7664013245934276,0.0499162634292099,0.005568917854983885,-0.9748936039761342,0.21678620406463606,-0.039469411144131286,-0.08937471665377458,0.01079382946510355,-1.3756685454063604,0.13486742685512382,12.109757346113074,18.600173215556183,19.620331349704593,0.0491166066759954,397.2303104466961,-3.133781180365265
2018-07-18 20:00:36.437398434,0.0,0.995557069778,-0.479999989271,-6.471579074859999,-123.0,-115.095077515,False,-0.855657727841106,1.7663663559931448,0.047863038072730214,0.006084452108572225,-0.9749703438962314,0.21689370841772793,-0.03171002280126248,-0.08433555200865091,0.0044039424735929505,-1.3821658841872793,0.06859457128975283,12.143543507773852,18.59582380353763,19.597212666740813,0.05176678329520918,397.1693534716078,-3.09865394118947
2018-07-18 20:00:36.468049049,-0.049999997019800006,0.995557069778,-0.299999982119,-6.471579074859999,-123.0,-115.095077515,False,-0.855711280074265,1.766331387392862,0.04580981271625053,0.006599986362160564,-0.9750470838163285,0.2170012127708198,-0.02395063445839366,-0.07929638736352723,-0.0019859445179176496,-1.3886632229681979,0.0023217157243817788,12.177329669434629,18.591474391519082,19.574093983777033,0.05441695991442296,397.10839649651945,-3.063526702013675
2018-07-18 20:00:36.535566330,-0.049999997019800006,0.995557069778,-0.299999982119,-6.471579074859999,-123.0,-115.095077515,False,-0.8557648323074241,1.7662964187925794,0.04375658735977085,0.007115520615748903,-0.9751238237364257,0.21710871712391167,-0.016191246115524846,-0.07425722271840356,-0.00837583150942825,-1.3951605617491165,-0.06395113984098921,12.211115831095407,18.58712497950053,19.55097530081325,0.05706713653363675,397.0474395214311,-3.02839946283788
2018-07-18 20:00:36.577220678,-0.049999997019800006,0.995557069778,-0.299999982119,-6.471579074859999,-123.0,-115.095077515,False,-0.8558183845405831,1.7662614501922969,0.04170336200329117,0.007631054869337243,-0.9752005636565229,0.21721622147700353,-0.00843185777265603,-0.06921805807327988,-0.01476571850093885,-1.4016579005300354,-0.13022399540636026,12.244901992756185,18.582775567481978,19.52785661784947,0.05971731315285053,396.98648254634276,-2.993272223662085
2018-07-18 20:00:36.613042831,-0.029999999329400003,0.995557069778,-0.199999988079,-6.471579074859999,-123.0,-115.095077515,False,-0.8558719367737421,1.7662264815920141,0.040466284932297175,0.006756997025606704,-0.9753874239774735,0.2166078225338145,-0.00034372652914003727,-0.0662833732872062,-0.017659948567763952,-1.3884206556537102,-0.11059336916961138,12.097594327915196,18.53348207975159,19.49093319923781,0.06473498132618567,396.93973355266434,-2.774496810178711
2018-07-18 20:00:36.674062014,-0.029999999329400003,0.17434681952,-0.199999988079,-4.83295869827,-123.0,-115.12258911100001,False,-0.8559254890069011,1.7661915129917314,0.03932665840285371,0.005717017737420176,-0.9755874330030035,0.21591394260002475,0.007783657598035315,-0.06359996967833252,-0.0201367867629848,-1.3728270425795053,-0.08070561077738524,11.928663519611309,18.478822135219787,19.452361453981627,0.0700353350582219,396.8946810343781,-2.533793256479506
2018-07-18 20:00:36.712683916,0.0,0.17434681952,-0.179999992251,-4.83295869827,-123.0,-115.12258911100001,False,-0.8558363649369718,1.7662401622872792,0.03818703187341025,0.004677038449233648,-0.9757874420285335,0.215220062666235,0.01591104172521067,-0.06091656606945885,-0.02261362495820565,-1.3572334295053003,-0.05081785238515908,11.759732711307421,18.424162190687987,19.413789708725442,0.07533568879025812,396.84962851609185,-2.2930897027803008
2018-07-18 20:00:36.730225563,0.0,0.17434681952,-0.179999992251,-4.83295869827,-123.0,-115.12258911100001,False,-0.8556441968703675,1.766349202285371,0.037047405343966784,0.00363705916104712,-0.9759874510540636,0.21452618273244523,0.024038425852386025,-0.05823316246058517,-0.025090463153426494,-1.3416398164310954,-0.02093009399293294,11.590801903003534,18.369502246156184,19.375217963469257,0.08063604252229434,396.80457599780567,-2.052386149081096
2018-07-18 20:00:36.812705517,-0.00999999977648,0.17434681952,-0.229999989271,-4.83295869827,-123.0,-115.12258911100001,False,-0.8554520288037633,1.766458242283463,0.035907778814523325,0.0025970798728605915,-0.9761874600795937,0.21383230279865548,0.03216580997956137,-0.0555497588517115,-0.027567301348647343,-1.3260462033568905,0.008957664399293214,11.421871094699647,18.314842301624385,19.336646218213076,0.08593639625433055,396.75952347951943,-1.8116825953818911
2018-07-18 20:00:36.834259033,-0.00999999977648,0.17434681952,-0.229999989271,-4.83295869827,-123.0,-115.12258911100001,False,-0.8552598607371591,1.7665672822815548,0.034768152285079866,0.0015571005846740631,-0.9763874691051236,0.21313842286486573,0.04029319410673673,-0.05286635524283782,-0.03004413954386819,-1.3104525902826856,0.03884542279151937,11.25294028639576,18.26018235709258,19.29807447295689,0.09123674998636677,396.71447096123325,-1.570979041682686
2018-07-18 20:00:36.938925028,0.0,0.17434681952,-0.310000002384,-4.83295869827,-123.0,-115.12258911100001,False,-0.8550676926705548,1.7666763222796467,0.0336285257556364,0.0005171212964875348,-0.9765874781306537,0.21244454293107598,0.04842057823391208,-0.05018295163396415,-0.03252097773908904,-1.2948589772084806,0.0687331811837455,11.084009478091872,18.20552241256078,19.259502727700706,0.09653710371840299,396.669418442947,-1.3302754879834813
2018-07-18 20:00:37.004734039,0.049999997019800006,0.818714499474,-0.34999999404,-3.6790783405300003,-123.0,-114.517883301,False,-0.8548755246039506,1.7667853622777385,0.03269593731621909,-0.0009887194245013012,-0.9767942418226926,0.21162510559307773,0.05224938860469118,-0.04813512862250672,-0.03255921685509247,-1.2770129533568906,0.11438781501766765,10.903366133745584,18.14207766504594,19.206799018556538,0.10321554920686923,396.6216098530459,-1.1683145934186927
2018-07-18 20:00:37.033704519,0.049999997019800006,0.818714499474,-0.34999999404,-3.6790783405300003,-123.0,-114.517883301,False,-0.8546833565373463,1.7668944022758304,0.03215353604646644,-0.0033725297688483417,-0.977013735463152,0.21056904083945582,0.04797704074226185,-0.04728513058310301,-0.028001634629493795,-1.254922001501767,0.18975694487632488,10.700649163780918,18.06207694267845,19.12746199285424,0.11249116762091517,396.5686071281784,-1.154753325684152
2018-07-18 20:00:37.119287491,-0.0599999986589,0.818714499474,-0.46999999880800003,-3.6790783405300003,-123.0,-114.517883301,False,-0.854491188470742,1.7670034422739225,0.03161113477671378,-0.005756340113195382,-0.9772332291036113,0.2095129760858339,0.04370469287983252,-0.0464351325436993,-0.02344405240389512,-1.2328310496466433,0.2651260747349821,10.497932193816254,17.982076220310955,19.048124967151942,0.1217667860349611,396.51560440331093,-1.1411920579496113
2018-07-18 20:00:37.143723011,-0.0599999986589,0.818714499474,-0.46999999880800003,-3.6790783405300003,-123.0,-114.517883301,False,-0.8542990204041379,1.7671124822720143,0.031068733506961134,-0.008140150457542423,-0.9774527227440707,0.20845691133221203,0.0394323450174032,-0.04558513450429559,-0.018886470178296446,-1.2107400977915195,0.34049520459363936,10.29521522385159,17.902075497943464,18.968787941449648,0.13104240444900705,396.4626016784435,-1.1276307902150706
2018-07-18 20:00:37.222550154,-0.07000000029799999,0.818714499474,-0.5600000023839999,-3.6790783405300003,-123.0,-114.517883301,False,-0.8540328478448622,1.7672522447625443,0.030526332237208485,-0.010523960801889463,-0.9776722163845302,0.20740084657859012,0.035159997154973865,-0.044735136464891884,-0.01432888795269777,-1.188649145936396,0.41586433445229654,10.092498253886927,17.822074775575974,18.88945091574735,0.140318022863053,396.409598953576,-1.11406952248053
2018-07-18 20:00:37.239933491,-0.07000000029799999,0.818714499474,-0.5600000023839999,-3.6790783405300003,-123.0,-114.517883301,False,-0.8536768126873427,1.7674293131367491,0.029983930967455833,-0.012907771146236504,-0.9778917100249895,0.2063447818249682,0.030887649292544537,-0.04388513842548817,-0.009771305727099094,-1.1665581940812721,0.4912334643109538,9.889781283922261,17.742074053208484,18.810113890045052,0.14959364127709893,396.3565962287085,-1.1005082547459895
2018-07-18 20:00:37.272477627,-0.25,0.818714499474,-0.6800000071529999,-3.6790783405300003,-123.0,-114.517883301,False,-0.8533207775298233,1.7676063815109542,0.02944152969770318,-0.015291581490583545,-0.9781112036654489,0.2052887170713463,0.02661530143011521,-0.04303514038608446,-0.005213723501500421,-1.1444672422261486,0.566602594169611,9.687064313957597,17.66207333084099,18.730776864342754,0.15886925969114485,396.303593503841,-1.0869469870114488
2018-07-18 20:00:37.356621265,-0.25,0.818714499474,-0.6800000071529999,-3.6790783405300003,-123.0,-114.517883301,False,-0.8529647423723039,1.767783449885159,0.028899128427950532,-0.017675391834930585,-0.9783306973059083,0.2042326523177244,0.022342953567685883,-0.04218514234668075,-0.0006561412759017449,-1.1223762903710248,0.6419717240282683,9.484347343992933,17.5820726084735,18.651439838640457,0.1681448781051908,396.2505907789735,-1.073385719276908
2018-07-18 20:00:37.382607460,-0.28000000119199997,0.818714499474,-0.75,-3.6790783405300003,-123.0,-114.517883301,False,-0.8526087072147844,1.7679605182593638,0.027577267641261487,-0.015550446807963967,-0.9785097970656962,0.20358035139692934,-0.002584922821852919,-0.03713003865872547,-0.0020029264479146424,-1.0774147060070673,0.6258583238515902,9.485386918197879,17.497972030113075,18.58708466575795,0.17636042606898938,396.20606719612016,-1.0285752316678445
2018-07-18 20:00:37.441128731,-0.28000000119199997,0.818714499474,-0.75,-3.6790783405300003,-123.0,-114.517883301,False,-0.852252672057265,1.768137586633569,0.026060541975338344,-0.012298312938168915,-0.9786787983553163,0.203028991434341,-0.03267668134316917,-0.031023658558632265,-0.004825803469330455,-1.0267354635159012,0.5868742911660778,9.53736562844523,17.41284648775442,18.52647495608039,0.18431095642022613,396.1636633987703,-0.9759524390901503
2018-07-18 20:00:37.492703199,-0.37999999523199995,0.818714499474,-0.799999952316,-3.6790783405300003,-123.0,-114.517883301,False,-0.8518966368997456,1.7683146550077737,0.024543816309415198,-0.009046179068373862,-0.9788477996449365,0.20247763147175266,-0.06276843986448544,-0.024917278458539065,-0.007648680490746267,-0.9760562210247352,0.5478902584805655,9.589344338692579,17.32772094539576,18.465865246402828,0.19226148677146288,396.1212596014205,-0.923329646512456
2018-07-18 20:00:37.576518774,-0.519999980927,2.71246218681,-0.8899999856949999,-2.8045575618700003,-123.0,-113.624694824,False,-0.8515406017422261,1.7684917233819788,0.023027090643492055,-0.005794045198578807,-0.9790168009345567,0.2019262715091643,-0.0928601983858017,-0.018810898358445866,-0.010471557512162081,-0.925376978533569,0.5089062257950531,9.64132304893993,17.242595403037104,18.405255536725264,0.20021201712269962,396.07885580407066,-0.8707068539347617
2018-07-18 20:00:37.616526604,-0.519999980927,2.71246218681,-0.8899999856949999,-2.8045575618700003,-123.0,-113.624694824,False,-0.8511845665847066,1.7686687917561836,0.021510364977568912,-0.0025419113287837546,-0.9791858022241768,0.201374911546576,-0.12295195690711794,-0.012704518258352667,-0.013294434533577894,-0.874697736042403,0.46992219310954075,9.693301759187278,17.157469860678447,18.344645827047703,0.20816254747393637,396.0364520067208,-0.8180840613570672
2018-07-18 20:00:37.644097328,-0.519999980927,2.71246218681,-0.8899999856949999,-2.8045575618700003,-123.0,-113.624694824,False,-0.8508260824925229,1.7688526354480565,0.019993639311645765,0.0007102225410112982,-0.9793548035137969,0.20082355158398765,-0.1530437154284342,-0.006598138158259471,-0.016117311554993706,-0.8240184935512369,0.4309381604240284,9.745280469434629,17.072344318319786,18.284036117370142,0.2161130778251731,395.99404820937104,-0.7654612687793729
2018-07-18 20:00:37.691240549,-0.6899999976160001,2.71246218681,-0.969999969006,-2.8045575618700003,-123.0,-113.624694824,False,-0.8504624556375442,1.7690507073070316,0.01847691364572262,0.003962356410806351,-0.979523804803417,0.2002721916213993,-0.18313547394975047,-0.0004917580581662723,-0.01894018857640952,-0.7733392510600708,0.391954127738516,9.79725917968198,16.98721877596113,18.223426407692582,0.22406360817640986,395.9516444120212,-0.7128384762016786
2018-07-18 20:00:37.732578278,-0.6899999976160001,2.71246218681,-0.969999969006,-2.8045575618700003,-123.0,-113.624694824,False,-0.8500988287825654,1.769248779166007,0.017327657204027562,0.00606689509067935,-0.9796569659911167,0.199830230869,-0.19434991850179523,0.004054545944841591,-0.019512450194128117,-0.7266103905477033,0.3490197130742051,9.861089035865724,16.915404380449292,18.1704426418,0.2306713821238233,395.9136047361855,-0.6942775287395564
2018-07-18 20:00:37.797954082,-0.8899999856949999,2.71246218681,-1.05999994278,-2.8045575618700003,-123.0,-113.624694824,False,-0.8497352019275866,1.7694468510249823,0.017261467949531095,0.004789047947624141,-0.9796844931942086,0.199710709894,-0.14992596398651262,0.004002730924861025,-0.013451319043054806,-0.6915247611307422,0.2944420673144879,9.959848585335688,16.882822838801765,18.1399353418,0.23332155824944167,395.8884277342862,-0.7761093879338583
2018-07-18 20:00:37.832790852,-0.8899999856949999,2.71246218681,-1.05999994278,-2.8045575618700003,-123.0,-113.624694824,False,-0.8493715750726077,1.7696449228839577,0.01719527869503463,0.0035112008045689314,-0.9797120203973004,0.19959118891900002,-0.10550200947123001,0.00395091590488046,-0.007390187891981497,-0.6564391317137812,0.2398644215547707,10.058608134805654,16.850241297154238,18.1094280418,0.23597173437506003,395.8632507323869,-0.8579412471281602
2018-07-18 20:00:37.907563925,-0.949999988079,2.71246218681,-1.23000001907,-2.8045575618700003,-123.0,-113.624694824,False,-0.849007948217629,1.7698429947429328,0.017129089440538165,0.002233353661513722,-0.9797395476003923,0.199471667944,-0.0610780549559474,0.0038991008848998946,-0.0013290567409081876,-0.6213535022968201,0.18528677579505348,10.157367684275618,16.817659755506714,18.0789207418,0.2386219105006784,395.8380737304876,-0.9397731063224622
2018-07-18 20:00:37.932175398,-0.949999988079,2.71246218681,-1.23000001907,-2.8045575618700003,-123.0,-113.624694824,False,-0.8486443213626502,1.7700410666019082,0.0170629001860417,0.0009555065184585123,-0.9797670748034842,0.199352146969,-0.016654100440664815,0.003847285864919329,0.004732074410165123,-0.586267872879859,0.1307091300353363,10.256127233745582,16.785078213859187,18.0484134418,0.2412720866262968,395.8128967285883,-1.0216049655167643
2018-07-18 20:00:37.997338295,-0.9300000071529999,2.71246218681,-1.30999994278,-2.8045575618700003,-123.0,-113.624694824,False,-0.8482806945076714,1.7702391384608835,0.01699671093154523,-0.00032234062459669723,-0.9797946020065761,0.19923262599400002,0.027769854074617795,0.0037954708449387635,0.010793205561238434,-0.5511822434628979,0.07613148427561905,10.354886783215546,16.75249667221166,18.0179061418,0.24392226275191514,395.78771972668903,-1.1034368247110662
2018-07-18 20:00:38.028213024,-0.9300000071529999,-0.32039606571199997,-1.30999994278,-2.09390473366,-123.0,-113.055740356,False,-0.8479170676526926,1.7704372103198587,0.016930521677048765,-0.0016001877676519068,-0.9798221292096679,0.199113105019,0.07219380858990038,0.0037436558249581984,0.016854336712311745,-0.5160966140459369,0.02155383851590187,10.45364633268551,16.719915130564132,17.9873988418,0.24657243887753352,395.76254272478974,-1.185268683905368
2018-07-18 20:00:38.119127512,-0.8399999737739999,-0.32039606571199997,-1.45999991894,-2.09390473366,-123.0,-113.055740356,False,-0.847415145188781,1.7707182676454065,0.016864332422552298,-0.002878034910707117,-0.9798496564127598,0.198993584044,0.11661776310518301,0.0036918408049776328,0.022915467863385056,-0.48101098462897585,-0.03302380724381532,10.552405882155476,16.68733358891661,17.9568915418,0.2492226150031519,395.73736572289044,-1.26710054309967
2018-07-18 20:00:38.144549847,-0.8399999737739999,-0.32039606571199997,-1.45999991894,-2.09390473366,-123.0,-113.055740356,False,-0.8463369910209824,1.7713450977483394,0.017349983256865358,-0.0034464980691706493,-0.97975811554191,0.1993900801363074,0.11150352714720234,0.005060525640655534,0.02308031428822177,-0.4615362945229684,-0.01781137137809259,10.41240988922262,16.619625954267317,17.93377984795071,0.25280918739077024,395.7131260311413,-1.1448961987617137
